stop_id,stop_code,stop_name,stop_desc,stop_lat,stop_lon,zone_id,stop_url,location_type,parent_station,stop_timezone,wheelchair_boarding
1,10001,Stop 92 Alawoona Rd - North West side,,-34.66091, 138.70355,,http://www.adelaidemetro.com.au/stops/view/10001,,,,
2,10002,Stop 92 Alawoona Rd - South East side,,-34.66114, 138.70346,,http://www.adelaidemetro.com.au/stops/view/10002,,,,
3,10003,Stop 93 Alawoona Rd - North West side,,-34.66324, 138.70171,,http://www.adelaidemetro.com.au/stops/view/10003,,,,
4,10004,Stop 93 Alawoona Rd - South East side,,-34.66366, 138.70166,,http://www.adelaidemetro.com.au/stops/view/10004,,,,
5,10005,Stop 91 Carcoola Rd - North West side,,-34.6614370056008, 138.705493365841,,http://www.adelaidemetro.com.au/stops/view/10005,,,,
6,10006,Stop 91 Carcoola Rd - South East side,,-34.66151, 138.70559,,http://www.adelaidemetro.com.au/stops/view/10006,,,,
7,10007,Stop 90 Carcoola Rd - South East side,,-34.6641360554388, 138.704101967217,,http://www.adelaidemetro.com.au/stops/view/10007,,,,
8,10008,Stop 90 Carcoola Rd - North West side,,-34.6642793681353, 138.703834169303,,http://www.adelaidemetro.com.au/stops/view/10008,,,,
9,10009,Stop 94 Alawoona Rd - North West side,,-34.66635, 138.69789,,http://www.adelaidemetro.com.au/stops/view/10009,,,,
10,10010,Stop 89 Carcoola Rd - North West side,,-34.6663451456967, 138.70281418814,,http://www.adelaidemetro.com.au/stops/view/10010,,,,
11,10011,Stop 89 Carcoola Rd - South East side,,-34.6663, 138.70307,,http://www.adelaidemetro.com.au/stops/view/10011,,,,
12,10012,Stop 88 Noora Cr - South East side,,-34.66734, 138.70077,,http://www.adelaidemetro.com.au/stops/view/10012,,,,
13,10013,Stop 88 Noora Cr - North West side,,-34.6669868347755, 138.700790419366,,http://www.adelaidemetro.com.au/stops/view/10013,,,,
14,10014,Stop 76 President Av - West side,,-34.6676153584776, 138.667939203326,,http://www.adelaidemetro.com.au/stops/view/10014,,,,
15,10015,Stop 73 Old Port Wakefield Rd - East side,,-34.66772, 138.56094,,http://www.adelaidemetro.com.au/stops/view/10015,,,,
16,10016,Stop 76 President Av - East side,,-34.66773, 138.668,,http://www.adelaidemetro.com.au/stops/view/10016,,,,
17,10017,Stop 75 President Av - East side,,-34.669431590146, 138.666946476489,,http://www.adelaidemetro.com.au/stops/view/10017,,,,
19,10019,Stop 87 Maltarra Rd - South East side,,-34.6684659296038, 138.701314331209,,http://www.adelaidemetro.com.au/stops/view/10019,,,,
20,10020,Stop 75 President Av - West side,,-34.6701350810759, 138.666368794238,,http://www.adelaidemetro.com.au/stops/view/10020,,,,
21,10021,Stop 72 Old Port Wakefield Rd - South West side,,-34.6706, 138.5617,,http://www.adelaidemetro.com.au/stops/view/10021,,,,
22,10022,Stop 77 Curtis Rd - North East side,,-34.6691872101082, 138.673079620199,,http://www.adelaidemetro.com.au/stops/view/10022,,,,
23,10023,Stop 77 Curtis Rd - South West side,,-34.66923, 138.67267,,http://www.adelaidemetro.com.au/stops/view/10023,,,,
24,10024,Stop 87 Maltarra Rd - North West side,,-34.6686865135038, 138.701007990289,,http://www.adelaidemetro.com.au/stops/view/10024,,,,
25,10025,Stop 78 Curtis Rd - North side,,-34.6702696402757, 138.675472228587,,http://www.adelaidemetro.com.au/stops/view/10025,,,,
26,10026,Stop 78 Curtis Rd - South side,,-34.67019, 138.675,,http://www.adelaidemetro.com.au/stops/view/10026,,,,
27,10027,Stop 74H President Av - East side,,-34.671818, 138.66693,,http://www.adelaidemetro.com.au/stops/view/10027,,,,
28,10028,Stop 96 Alawoona Rd - South East side,,-34.672480192878, 138.695200968361,,http://www.adelaidemetro.com.au/stops/view/10028,,,,
29,10029,Stop 78A Curtis Rd - North side,,-34.6710517209751, 138.677303747585,,http://www.adelaidemetro.com.au/stops/view/10029,,,,
30,10030,Stop 78A Curtis Rd - South side,,-34.67108, 138.67706,,http://www.adelaidemetro.com.au/stops/view/10030,,,,
31,10031,Stop 71 Old Port Wakefield Rd - East side,,-34.675248639843, 138.563327338503,,http://www.adelaidemetro.com.au/stops/view/10031,,,,
32,10032,Stop 86 Maltarra Rd - South East side,,-34.6708523725428, 138.700267018916,,http://www.adelaidemetro.com.au/stops/view/10032,,,,
33,10033,Stop 86 Maltarra Rd - North West side,,-34.6709095150467, 138.700077381251,,http://www.adelaidemetro.com.au/stops/view/10033,,,,
34,10034,Stop 71 Old Port Wakefield Rd - South West side,,-34.6748280746903, 138.563009389142,,http://www.adelaidemetro.com.au/stops/view/10034,,,,
35,10035,Stop 97 Myall Av - North East side,,-34.6750964503942, 138.694059063348,,http://www.adelaidemetro.com.au/stops/view/10035,,,,
36,10036,Stop 85 Maltarra Rd - South East side,,-34.67307, 138.6989,,http://www.adelaidemetro.com.au/stops/view/10036,,,,
37,10037,Stop 85 Maltarra Rd - North West side,,-34.67343, 138.6983,,http://www.adelaidemetro.com.au/stops/view/10037,,,,
38,10038,Stop 78B Peachey Rd - West side,,-34.67375, 138.6779,,http://www.adelaidemetro.com.au/stops/view/10038,,,,
39,10039,Stop 78B Peachey Rd - East side,,-34.6740248317118, 138.678112737422,,http://www.adelaidemetro.com.au/stops/view/10039,,,,
40,10040,Stop 84 Maltarra Rd - South East side,,-34.6753047071171, 138.697408829863,,http://www.adelaidemetro.com.au/stops/view/10040,,,,
41,10041,Stop 84 Maltarra Rd - North West side,,-34.6754314479618, 138.697176023295,,http://www.adelaidemetro.com.au/stops/view/10041,,,,
42,10042,Stop 83 Maltarra Rd - South East side,,-34.6755889438042, 138.694947130554,,http://www.adelaidemetro.com.au/stops/view/10042,,,,
43,10043,Stop 83 Maltarra Rd - North West side,,-34.6754163399317, 138.694987503501,,http://www.adelaidemetro.com.au/stops/view/10043,,,,
47,10047,Stop 70 Old Port Wakefield Rd - North East side,,-34.6811640623665, 138.565240291879,,http://www.adelaidemetro.com.au/stops/view/10047,,,,
49,10049,Stop 82 Mingari St - South East side,,-34.6772, 138.69504,,http://www.adelaidemetro.com.au/stops/view/10049,,,,
50,10050,Stop 82 Mingari St - North West side,,-34.6768937003031, 138.694995693258,,http://www.adelaidemetro.com.au/stops/view/10050,,,,
51,10051,Stop 70 Old Port Wakefield Rd - South West side,,-34.68145, 138.56511,,http://www.adelaidemetro.com.au/stops/view/10051,,,,
52,10052,Stop 89 Craigmore Rd - North side,,-34.6808431537633, 138.700054503668,,http://www.adelaidemetro.com.au/stops/view/10052,,,,
53,10053,Stop 79H Coventry Rd - South East side,,-34.6800051487318, 138.681300026312,,http://www.adelaidemetro.com.au/stops/view/10053,,,,
55,10054,Stop 79H Coventry Rd - North West side,,-34.6800315694616, 138.681105568429,,http://www.adelaidemetro.com.au/stops/view/10054,,,,
59,10056,Stop 80 Anderson Wk - North side,,-34.6796781452012, 138.683676405969,,http://www.adelaidemetro.com.au/stops/view/10056,,,,
60,10057,Stop 81C Main North Rd - East side,,-34.6802945164008, 138.695675945018,,http://www.adelaidemetro.com.au/stops/view/10057,,,,
61,10058,Zone A Smithfield Interchange,,-34.6817215302139, 138.687338249642,,http://www.adelaidemetro.com.au/stops/view/10058,,,,
63,10059,Stop 81C Main North Rd - West side,,-34.68073, 138.69494,,http://www.adelaidemetro.com.au/stops/view/10059,,,,
65,10061,Stop 88 Craigmore Rd - North side,,-34.6821256625326, 138.703076221273,,http://www.adelaidemetro.com.au/stops/view/10061,,,,
66,10062,Zone B Smithfield Interchange,,-34.682129415849, 138.68727041059,,http://www.adelaidemetro.com.au/stops/view/10062,,,,
70,10063,Stop 81A Anderson Wk - North side,,-34.6833769106336, 138.692214874369,,http://www.adelaidemetro.com.au/stops/view/10063,,,,
72,10065,Stop 79J Coventry Rd - South East side,,-34.6829030286883, 138.67945638079,,http://www.adelaidemetro.com.au/stops/view/10065,,,,
74,10067,Stop 81B Main North Rd - East side,,-34.6828213023123, 138.694096565891,,http://www.adelaidemetro.com.au/stops/view/10067,,,,
75,10068,Stop 69 Old Port Wakefield Rd - East side,,-34.686189708295, 138.56700144436,,http://www.adelaidemetro.com.au/stops/view/10068,,,,
76,10069,Stop 79J Coventry Rd - North West side,,-34.6830780297123, 138.679170387892,,http://www.adelaidemetro.com.au/stops/view/10069,,,,
77,10070,Stop 69 Old Port Wakefield Rd - West side,,-34.6860981853233, 138.566874067988,,http://www.adelaidemetro.com.au/stops/view/10070,,,,
79,10072,Stop 87 Craigmore Rd - North side,,-34.6838065903967, 138.706944714789,,http://www.adelaidemetro.com.au/stops/view/10072,,,,
80,10073,Stop 80M Warooka Cr - South West side,,-34.6842691590774, 138.688502717564,,http://www.adelaidemetro.com.au/stops/view/10073,,,,
81,10074,Stop 80M Warooka Cr - North East side,,-34.6843219980044, 138.688830641009,,http://www.adelaidemetro.com.au/stops/view/10074,,,,
82,10075,Stop 89 Park Lake Bvd - North West side,,-34.68423, 138.70041,,http://www.adelaidemetro.com.au/stops/view/10075,,,,
83,10076,Stop 76 Whitington Rd - North side,,-34.6855148015043, 138.675551304497,,http://www.adelaidemetro.com.au/stops/view/10076,,,,
85,10078,Stop 76 Whitington Rd - South side,,-34.6856175686502, 138.675452984669,,http://www.adelaidemetro.com.au/stops/view/10078,,,,
86,10079,Stop 86 Craigmore Rd - North side,,-34.6846601389113, 138.708895725381,,http://www.adelaidemetro.com.au/stops/view/10079,,,,
87,10080,Stop 92 Park Lake Bvd - East side,,-34.69055, 138.69917,,http://www.adelaidemetro.com.au/stops/view/10080,,,,
89,10082,Stop 77 Coventry Rd - North West side,,-34.6849058673463, 138.677989311006,,http://www.adelaidemetro.com.au/stops/view/10082,,,,
91,10084,Stop 77 Coventry Rd - South East side,,-34.6848879278979, 138.678213504785,,http://www.adelaidemetro.com.au/stops/view/10084,,,,
93,10086,Stop 85 Craigmore Rd - South side,,-34.6859723873499, 138.71167193726,,http://www.adelaidemetro.com.au/stops/view/10086,,,,
95,10087,Stop 85 Craigmore Rd - North side,,-34.6859606674409, 138.711978967227,,http://www.adelaidemetro.com.au/stops/view/10087,,,,
97,10089,Stop 74 Peachey Rd - East side,,-34.6872956395189, 138.670305551167,,http://www.adelaidemetro.com.au/stops/view/10089,,,,
98,10090,Stop 74 Peachey Rd - West side,,-34.6872773000216, 138.669983606948,,http://www.adelaidemetro.com.au/stops/view/10090,,,,
100,10092,Stop 91 Park Lake Bvd - East side,,-34.6877630320762, 138.698363696671,,http://www.adelaidemetro.com.au/stops/view/10092,,,,
102,10094,Stop 78 Uley Rd - South West side,,-34.6897, 138.69261,,http://www.adelaidemetro.com.au/stops/view/10094,,,,
104,10096,Stop 78 Uley Rd - North East side,,-34.6896652158516, 138.693010954385,,http://www.adelaidemetro.com.au/stops/view/10096,,,,
106,10098,Stop 89 Park Lake Bvd - South East side,,-34.6837693368592, 138.701480291072,,http://www.adelaidemetro.com.au/stops/view/10098,,,,
107,10099,Stop 84 Adams Rd - East side,,-34.6880939211872, 138.712190801564,,http://www.adelaidemetro.com.au/stops/view/10099,,,,
108,10100,Stop 91 Park Lake Bvd - West side,,-34.68794, 138.69813,,http://www.adelaidemetro.com.au/stops/view/10100,,,,
109,10101,Stop 73 Peachey Rd - South East side,,-34.6900227432392, 138.669488255583,,http://www.adelaidemetro.com.au/stops/view/10101,,,,
110,10102,Stop 77 Hamblynn Rd - North West side,,-34.6913580552173, 138.693754131654,,http://www.adelaidemetro.com.au/stops/view/10102,,,,
111,10103,Stop 77 Hamblynn Rd - South East side,,-34.6913627528871, 138.693925506724,,http://www.adelaidemetro.com.au/stops/view/10103,,,,
112,10104,Stop 73 Peachey Rd - North West side,,-34.6898184263157, 138.669282662674,,http://www.adelaidemetro.com.au/stops/view/10104,,,,
113,10105,Stop 68 Port Wakefield Rd - South West side,,-34.696397175505, 138.569929165493,,http://www.adelaidemetro.com.au/stops/view/10105,,,,
114,10106,Stop 77 Adams Rd - East side,,-34.6914984097203, 138.710035758427,,http://www.adelaidemetro.com.au/stops/view/10106,,,,
115,10107,Stop 76 Hamblynn Rd - North West side,,-34.6927035399476, 138.692911562512,,http://www.adelaidemetro.com.au/stops/view/10107,,,,
116,10108,Stop 77 Adams Rd - West side,,-34.6913407695169, 138.709928910889,,http://www.adelaidemetro.com.au/stops/view/10108,,,,
117,10109,Stop 77D Uley Rd - North East side,,-34.6926591531575, 138.699919447866,,http://www.adelaidemetro.com.au/stops/view/10109,,,,
118,10110,Stop 76 Hamblynn Rd - South East side,,-34.6932630379495, 138.692743773628,,http://www.adelaidemetro.com.au/stops/view/10110,,,,
119,10111,Stop 72 Peachey Rd - East side,,-34.6925382141167, 138.667888459978,,http://www.adelaidemetro.com.au/stops/view/10111,,,,
120,10112,Stop 76F Adams Rd - East side,,-34.6938697853478, 138.708490069337,,http://www.adelaidemetro.com.au/stops/view/10112,,,,
121,10113,Stop 72 Peachey Rd - West side,,-34.6923449639854, 138.667681393794,,http://www.adelaidemetro.com.au/stops/view/10113,,,,
122,10114,Stop 68 Port Wakefield Rd - North East side,,-34.6950757112301, 138.569654843048,,http://www.adelaidemetro.com.au/stops/view/10114,,,,
123,10115,Stop 76C Hanson Rd - South East side,,-34.695161, 138.700356,,http://www.adelaidemetro.com.au/stops/view/10115,,,,
