<?xml version="1.0" encoding="UTF-8"?>
<kml xmlns="http://www.opengis.net/kml/2.2" xmlns:gx="http://www.google.com/kml/ext/2.2" xmlns:kml="http://www.opengis.net/kml/2.2" xmlns:atom="http://www.w3.org/2005/Atom">
	<Document>
		<name>Melbourne Transport</name>
		<Folder>
			<name>Suburban Railways</name>
			<open>1</open>
			<Folder>
				<name>Melbourne City Loop</name>
				<Placemark>
					<name>Flinders Street</name>
					<LookAt>
						<longitude>144.9664163346388</longitude>
						<latitude>-37.8185911123529</latitude>
						<altitude>0</altitude>
						<heading>0</heading>
						<tilt>0</tilt>
						<range>1000</range>
					</LookAt>

					<Point>
						<coordinates>144.9664163346388,-37.8185911123529</coordinates>
					</Point>
				</Placemark>
				<Placemark>
					<name>Parliament</name>
					<LookAt>
						<longitude>144.9738526442153</longitude>
						<latitude>-37.81209270963045</latitude>
						<altitude>0</altitude>
						<heading>0</heading>
						<tilt>0</tilt>
						<range>1000</range>
					</LookAt>

					<Point>
						<coordinates>144.9738526442153,-37.81209270963045</coordinates>
					</Point>
				</Placemark>
				<Placemark>
					<name>Melbourne Central</name>
					<formerName>Museum</formerName>
					<LookAt>
						<longitude>144.9636851261178</longitude>
						<latitude>-37.80996218665096</latitude>
						<altitude>0</altitude>
						<heading>0</heading>
						<tilt>0</tilt>
						<range>1000</range>
					</LookAt>

					<Point>
						<coordinates>144.9636851261178,-37.80996218665096</coordinates>
					</Point>
				</Placemark>
				<Placemark>
					<name>Flagstaff</name>
					<LookAt>
						<longitude>144.956351378399</longitude>
						<latitude>-37.81197910122754</latitude>
						<altitude>0</altitude>
						<heading>0</heading>
						<tilt>0</tilt>
						<range>1000</range>
					</LookAt>

					<Point>
						<coordinates>144.956351378399,-37.81197910122754</coordinates>
					</Point>
				</Placemark>
				<Placemark>
					<name>Southern Cross</name>
					<formerName>Spencer Street</formerName>
					<LookAt>
						<longitude>144.9528920989287</longitude>
						<latitude>-37.81812361695039</latitude>
						<altitude>0</altitude>
						<heading>0</heading>
						<tilt>0</tilt>
						<range>1000</range>
					</LookAt>

					<Point>
						<coordinates>144.9528920989287,-37.81812361695039</coordinates>
					</Point>
				</Placemark>
				
			</Folder>
			<Folder>
				<name>North Melbourne</name>
				<open>1</open>
				<Placemark>
					<name>North Melbourne</name>
					<LookAt>
						<longitude>144.9416755462008</longitude>
						<latitude>-37.80678095576592</latitude>
						<altitude>0</altitude>
						<heading>0</heading>
						<tilt>0</tilt>
						<range>1000</range>
					</LookAt>

					<Point>
						<coordinates>144.9416755462008,-37.80678095576592</coordinates>
					</Point>
				</Placemark>
				
			</Folder>
			<Folder>
				<name>Richmond</name>
				<Placemark>
					<name>Richmond</name>
					<LookAt>
						<longitude>144.9893187255891</longitude>
						<latitude>-37.82390084891806</latitude>
						<altitude>0</altitude>
						<heading>0</heading>
						<tilt>0</tilt>
						<range>1000</range>
					</LookAt>

					<Point>
						<coordinates>144.9893187255891,-37.82390084891806</coordinates>
					</Point>
				</Placemark>
				
			</Folder>
			<Folder>
				<name>Richmond to Ringwood</name>
				<Placemark>
					<name>East Richmond</name>
					<LookAt>
						<longitude>144.9970333767871</longitude>
						<latitude>-37.82649349686729</latitude>
						<altitude>0</altitude>
						<heading>0</heading>
						<tilt>0</tilt>
						<range>1000</range>
					</LookAt>

					<Point>
						<coordinates>144.9970333767871,-37.82649349686729</coordinates>
					</Point>
				</Placemark>
				<Placemark>
					<name>Burnley</name>
					<LookAt>
						<longitude>145.0078382723224</longitude>
						<latitude>-37.82763862760392</latitude>
						<altitude>0</altitude>
						<heading>0</heading>
						<tilt>0</tilt>
						<range>1000</range>
					</LookAt>

					<Point>
						<coordinates>145.0078382723224,-37.82763862760392</coordinates>
					</Point>
				</Placemark>
				<Placemark>
					<name>Hawthorn</name>
					<LookAt>
						<longitude>145.0229811357073</longitude>
						<latitude>-37.82199522522839</latitude>
						<altitude>0</altitude>
						<heading>0</heading>
						<tilt>0</tilt>
						<range>1000</range>
					</LookAt>

					<Point>
						<coordinates>145.0229811357073,-37.82199522522839</coordinates>
					</Point>
				</Placemark>
				<Placemark>
					<name>Glenferrie</name>
					<LookAt>
						<longitude>145.035936012582</longitude>
						<latitude>-37.82143708048044</latitude>
						<altitude>0</altitude>
						<heading>0</heading>
						<tilt>0</tilt>
						<range>1000</range>
					</LookAt>

					<Point>
						<coordinates>145.035936012582,-37.82143708048044</coordinates>
					</Point>
				</Placemark>
				<Placemark>
					<name>Auburn</name>
					<LookAt>
						<longitude>145.0459447786519</longitude>
						<latitude>-37.82247803670837</latitude>
						<altitude>0</altitude>
						<heading>0</heading>
						<tilt>0</tilt>
						<range>1000</range>
					</LookAt>

					<Point>
						<coordinates>145.0459447786519,-37.82247803670837</coordinates>
					</Point>
				</Placemark>
				<Placemark>
					<name>Camberwell</name>
					<LookAt>
						<longitude>145.0587941154463</longitude>
						<latitude>-37.82666868363658</latitude>
						<altitude>0</altitude>
						<heading>0</heading>
						<tilt>0</tilt>
						<range>1000</range>
					</LookAt>

					<Point>
						<coordinates>145.0587941154463,-37.82666868363658</coordinates>
					</Point>
				</Placemark>
				<Placemark>
					<name>East Camberwell</name>
					<LookAt>
						<longitude>145.0680726316956</longitude>
						<latitude>-37.82584651067147</latitude>
						<altitude>0</altitude>
						<heading>0</heading>
						<tilt>0</tilt>
						<range>1000</range>
					</LookAt>

					<Point>
						<coordinates>145.0680726316956,-37.82584651067148</coordinates>
					</Point>
				</Placemark>
				<Placemark>
					<name>Canterbury</name>
					<LookAt>
						<longitude>145.0801150419611</longitude>
						<latitude>-37.82534970830067</latitude>
						<altitude>0</altitude>
						<heading>0</heading>
						<tilt>0</tilt>
						<range>1000</range>
					</LookAt>

					<Point>
						<coordinates>145.0801150419611,-37.82534970830067</coordinates>
					</Point>
				</Placemark>
				<Placemark>
					<name>Chatham</name>
					<LookAt>
						<longitude>145.0890177688173</longitude>
						<latitude>-37.82434283696804</latitude>
						<altitude>0</altitude>
						<heading>0</heading>
						<tilt>0</tilt>
						<range>1000</range>
					</LookAt>

					<Point>
						<coordinates>145.0890177688173,-37.82434283696804</coordinates>
					</Point>
				</Placemark>
				<Placemark>
					<name>Surrey Hills</name>
					<LookAt>
						<longitude>145.0985670643731</longitude>
						<latitude>-37.82435029501524</latitude>
						<altitude>0</altitude>
						<heading>0</heading>
						<tilt>0</tilt>
						<range>1000</range>
					</LookAt>

					<Point>
						<coordinates>145.0985670643731,-37.82435029501524</coordinates>
					</Point>
				</Placemark>
				<Placemark>
					<name>Mont Albert</name>
					<LookAt>
						<longitude>145.1055180711659</longitude>
						<latitude>-37.81980651978089</latitude>
						<altitude>0</altitude>
						<heading>0</heading>
						<tilt>0</tilt>
						<range>1000</range>
					</LookAt>

					<Point>
						<coordinates>145.1055180711659,-37.81980651978089</coordinates>
					</Point>
				</Placemark>
				<Placemark>
					<name>Box Hill</name>
					<LookAt>
						<longitude>145.1222247880708</longitude>
						<latitude>-37.81958423560769</latitude>
						<altitude>0</altitude>
						<heading>0</heading>
						<tilt>0</tilt>
						<range>1000</range>
					</LookAt>

					<Point>
						<coordinates>145.1222247880708,-37.81958423560769</coordinates>
					</Point>
				</Placemark>
				<Placemark>
					<name>Laburnum</name>
					<LookAt>
						<longitude>145.140434546888</longitude>
						<latitude>-37.82132929238194</latitude>
						<altitude>0</altitude>
						<heading>0</heading>
						<tilt>0</tilt>
						<range>1000</range>
					</LookAt>

					<Point>
						<coordinates>145.140434546888,-37.82132929238195</coordinates>
					</Point>
				</Placemark>
				<Placemark>
					<name>Blackburn</name>
					<LookAt>
						<longitude>145.1505705644538</longitude>
						<latitude>-37.82037535739682</latitude>
						<altitude>0</altitude>
						<heading>0</heading>
						<tilt>0</tilt>
						<range>1000</range>
					</LookAt>

					<Point>
						<coordinates>145.1505705644538,-37.82037535739682</coordinates>
					</Point>
				</Placemark>
				<Placemark>
					<name>Nunawading</name>
					<LookAt>
						<longitude>145.1770198085771</longitude>
						<latitude>-37.82047747249494</latitude>
						<altitude>0</altitude>
						<heading>0</heading>
						<tilt>0</tilt>
						<range>1000</range>
					</LookAt>

					<Point>
						<coordinates>145.1770198085771,-37.82047747249494</coordinates>
					</Point>
				</Placemark>
				<Placemark>
					<name>Micham</name>
					<LookAt>
						<longitude>145.1921204254263</longitude>
						<latitude>-37.81820925390358</latitude>
						<altitude>0</altitude>
						<heading>0</heading>
						<tilt>0</tilt>
						<range>1000</range>
					</LookAt>

					<Point>
						<coordinates>145.1921204254263,-37.81820925390358</coordinates>
					</Point>
				</Placemark>
				<Placemark>
					<name>Heatherdale</name>
					<LookAt>
						<longitude>145.2124447980725</longitude>
						<latitude>-37.81891992429505</latitude>
						<altitude>0</altitude>
						<heading>0</heading>
						<tilt>0</tilt>
						<range>1000</range>
					</LookAt>

					<Point>
						<coordinates>145.2124447980725,-37.81891992429505</coordinates>
					</Point>
				</Placemark>
				<Placemark>
					<name>Ringwood</name>
					<LookAt>
						<longitude>145.2295215979657</longitude>
						<latitude>-37.81587540639163</latitude>
						<altitude>0</altitude>
						<heading>0</heading>
						<tilt>0</tilt>
						<range>1000</range>
					</LookAt>

					<Point>
						<coordinates>145.2295215979657,-37.81587540639163</coordinates>
					</Point>
				</Placemark>
				
			</Folder>
			<Folder>
				<name>Camberwell to Alemein</name>
				<Placemark>
					<name>Riversdale</name>
					<LookAt>
						<longitude>145.0696658075285</longitude>
						<latitude>-37.83146932926793</latitude>
						<altitude>0</altitude>
						<heading>0</heading>
						<tilt>0</tilt>
						<range>1000</range>
					</LookAt>

					<Point>
						<coordinates>145.0696658075285,-37.83146932926794</coordinates>
					</Point>
				</Placemark>
				<Placemark>
					<name>Willison</name>
					<LookAt>
						<longitude>145.070283009382</longitude>
						<latitude>-37.83566182930487</latitude>
						<altitude>0</altitude>
						<heading>0</heading>
						<tilt>0</tilt>
						<range>1000</range>
					</LookAt>

					<Point>
						<coordinates>145.070283009382,-37.83566182930487</coordinates>
					</Point>
				</Placemark>
				<Placemark>
					<name>Hartwell</name>
					<LookAt>
						<longitude>145.0755111554318</longitude>
						<latitude>-37.84384840008282</latitude>
						<altitude>0</altitude>
						<heading>0</heading>
						<tilt>0</tilt>
						<range>1000</range>
					</LookAt>

					<Point>
						<coordinates>145.0755111554318,-37.84384840008282</coordinates>
					</Point>
				</Placemark>
				<Placemark>
					<name>Burwood</name>
					<LookAt>
						<longitude>145.0803361159247</longitude>
						<latitude>-37.85127550817575</latitude>
						<altitude>0</altitude>
						<heading>0</heading>
						<tilt>0</tilt>
						<range>1000</range>
					</LookAt>

					<Point>
						<coordinates>145.0803361159247,-37.85127550817575</coordinates>
					</Point>
				</Placemark>
				<Placemark>
					<name>Ashburton</name>
					<LookAt>
						<longitude>145.0817636121121</longitude>
						<latitude>-37.86181110076679</latitude>
						<altitude>0</altitude>
						<heading>0</heading>
						<tilt>0</tilt>
						<range>1000</range>
					</LookAt>

					<Point>
						<coordinates>145.0817636121121,-37.86181110076679</coordinates>
					</Point>
				</Placemark>
				<Placemark>
					<name>Alemein</name>
					<LookAt>
						<longitude>145.0793961771672</longitude>
						<latitude>-37.86996112712848</latitude>
						<altitude>0</altitude>
						<heading>0</heading>
						<tilt>0</tilt>
						<range>1000</range>
					</LookAt>

					<Point>
						<coordinates>145.0793961771672,-37.86996112712848</coordinates>
					</Point>
				</Placemark>
				
			</Folder>
			<Folder>
				<name>Burnley to Glen Waverley</name>
				<Placemark>
					<name>Heyington</name>
					<LookAt>
						<longitude>145.0227208381918</longitude>
						<latitude>-37.83467619153145</latitude>
						<altitude>0</altitude>
						<heading>0</heading>
						<tilt>0</tilt>
						<range>1000</range>
					</LookAt>

					<Point>
						<coordinates>145.0227208381918,-37.83467619153145</coordinates>
					</Point>
				</Placemark>
				<Placemark>
					<name>Kooyong</name>
					<LookAt>
						<longitude>145.0332667041273</longitude>
						<latitude>-37.83984285065528</latitude>
						<altitude>0</altitude>
						<heading>0</heading>
						<tilt>0</tilt>
						<range>1000</range>
					</LookAt>

					<Point>
						<coordinates>145.0332667041273,-37.83984285065528</coordinates>
					</Point>
				</Placemark>
				<Placemark>
					<name>Tooronga</name>
					<LookAt>
						<longitude>145.0415929464162</longitude>
						<latitude>-37.84924413193308</latitude>
						<altitude>0</altitude>
						<heading>0</heading>
						<tilt>0</tilt>
						<range>1000</range>
					</LookAt>

					<Point>
						<coordinates>145.0415929464162,-37.84924413193308</coordinates>
					</Point>
				</Placemark>
				<Placemark>
					<name>Gardiner</name>
					<LookAt>
						<longitude>145.0510909881858</longitude>
						<latitude>-37.85307198892174</latitude>
						<altitude>0</altitude>
						<heading>0</heading>
						<tilt>0</tilt>
						<range>1000</range>
					</LookAt>

					<Point>
						<coordinates>145.0510909881858,-37.85307198892174</coordinates>
					</Point>
				</Placemark>
				<Placemark>
					<name>Glen Iris</name>
					<LookAt>
						<longitude>145.0583896359248</longitude>
						<latitude>-37.85931520363921</latitude>
						<altitude>0</altitude>
						<heading>0</heading>
						<tilt>0</tilt>
						<range>1000</range>
					</LookAt>

					<Point>
						<coordinates>145.0583896359248,-37.85931520363921</coordinates>
					</Point>
				</Placemark>
				<Placemark>
					<name>Darling</name>
					<LookAt>
						<longitude>145.0632244451035</longitude>
						<latitude>-37.86908363051123</latitude>
						<altitude>0</altitude>
						<heading>0</heading>
						<tilt>0</tilt>
						<range>1000</range>
					</LookAt>

					<Point>
						<coordinates>145.0632244451035,-37.86908363051123</coordinates>
					</Point>
				</Placemark>
				<Placemark>
					<name>East Malvern</name>
					<LookAt>
						<longitude>145.0695163342252</longitude>
						<latitude>-37.87692599169439</latitude>
						<altitude>0</altitude>
						<heading>0</heading>
						<tilt>0</tilt>
						<range>1000</range>
					</LookAt>

					<Point>
						<coordinates>145.0695163342252,-37.87692599169439</coordinates>
					</Point>
				</Placemark>
				<Placemark>
					<name>Holmesglen</name>
					<LookAt>
						<longitude>145.090672681511</longitude>
						<latitude>-37.87467703296149</latitude>
						<altitude>0</altitude>
						<heading>0</heading>
						<tilt>0</tilt>
						<range>1000</range>
					</LookAt>

					<Point>
						<coordinates>145.090672681511,-37.87467703296149</coordinates>
					</Point>
				</Placemark>
				<Placemark>
					<name>Jordanville</name>
					<LookAt>
						<longitude>145.1130296263238</longitude>
						<latitude>-37.87409739986921</latitude>
						<altitude>0</altitude>
						<heading>0</heading>
						<tilt>0</tilt>
						<range>1000</range>
					</LookAt>

					<Point>
						<coordinates>145.1130296263238,-37.87409739986921</coordinates>
					</Point>
				</Placemark>
				<Placemark>
					<name>Mount Waverley</name>
					<LookAt>
						<longitude>145.1289228428006</longitude>
						<latitude>-37.87549247761578</latitude>
						<altitude>0</altitude>
						<heading>0</heading>
						<tilt>0</tilt>
						<range>1000</range>
					</LookAt>

					<Point>
						<coordinates>145.1289228428006,-37.87549247761579</coordinates>
					</Point>
				</Placemark>
				<Placemark>
					<name>Syndal</name>
					<LookAt>
						<longitude>145.1504036453272</longitude>
						<latitude>-37.8766221717744</latitude>
						<altitude>0</altitude>
						<heading>0</heading>
						<tilt>0</tilt>
						<range>1000</range>
					</LookAt>

					<Point>
						<coordinates>145.1504036453272,-37.8766221717744</coordinates>
					</Point>
				</Placemark>
				<Placemark>
					<name>Glen Waverley</name>
					<LookAt>
						<longitude>145.1627136802286</longitude>
						<latitude>-37.87978494999467</latitude>
						<altitude>0</altitude>
						<heading>0</heading>
						<tilt>0</tilt>
						<range>1000</range>
					</LookAt>

					<Point>
						<coordinates>145.1627136802286,-37.87978494999467</coordinates>
					</Point>
				</Placemark>
				
			</Folder>
			<Folder>
				<name>Ringwood to Lilydale</name>
				<Placemark>
					<name>Ringwood East</name>
					<LookAt>
						<longitude>145.2501771040073</longitude>
						<latitude>-37.81229705900649</latitude>
						<altitude>0</altitude>
						<heading>0</heading>
						<tilt>0</tilt>
						<range>1000</range>
					</LookAt>

					<Point>
						<coordinates>145.2501771040073,-37.81229705900649</coordinates>
					</Point>
				</Placemark>
				<Placemark>
					<name>Croydon</name>
					<LookAt>
						<longitude>145.2797072013943</longitude>
						<latitude>-37.7961232740329</latitude>
						<altitude>0</altitude>
						<heading>0</heading>
						<tilt>0</tilt>
						<range>1000</range>
					</LookAt>

					<Point>
						<coordinates>145.2797072013943,-37.7961232740329</coordinates>
					</Point>
				</Placemark>
				<Placemark>
					<name>Mooroolbark</name>
					<LookAt>
						<longitude>145.3130274264489</longitude>
						<latitude>-37.78505533567094</latitude>
						<altitude>0</altitude>
						<heading>0</heading>
						<tilt>0</tilt>
						<range>1000</range>
					</LookAt>

					<Point>
						<coordinates>145.3130274264489,-37.78505533567094</coordinates>
					</Point>
				</Placemark>
				<Placemark>
					<name>Lilydale</name>
					<LookAt>
						<longitude>145.3471234818967</longitude>
						<latitude>-37.75644566624681</latitude>
						<altitude>0</altitude>
						<heading>0</heading>
						<tilt>0</tilt>
						<range>1000</range>
					</LookAt>

					<Point>
						<coordinates>145.3471234818967,-37.75644566624681</coordinates>
					</Point>
				</Placemark>
				
			</Folder>
			<Folder>
				<name>Lilydale to Healesville</name>
				<Placemark>
					<name>Coldstream</name>
					<LookAt>
						<longitude>145.3718861166194</longitude>
						<latitude>-37.72609855668696</latitude>
						<altitude>0</altitude>
						<heading>0</heading>
						<tilt>0</tilt>
						<range>1000</range>
					</LookAt>

					<Point>
						<coordinates>145.3718861166194,-37.72609855668696</coordinates>
					</Point>
				</Placemark>
				<Placemark>
					<name>Yering</name>
					<LookAt>
						<longitude>145.3746555065526</longitude>
						<latitude>-37.69271929303731</latitude>
						<altitude>0</altitude>
						<heading>0</heading>
						<tilt>0</tilt>
						<range>1000</range>
					</LookAt>

					<Point>
						<coordinates>145.3746555065526,-37.69271929303731</coordinates>
					</Point>
				</Placemark>
				<Placemark>
					<name>Yarra Glen</name>
					<LookAt>
						<longitude>145.3731345891666</longitude>
						<latitude>-37.66149056099734</latitude>
						<altitude>0</altitude>
						<heading>0</heading>
						<tilt>0</tilt>
						<range>1000</range>
					</LookAt>

					<Point>
						<coordinates>145.3731345891666,-37.66149056099734</coordinates>
					</Point>
				</Placemark>
				<Placemark>
					<name>Tarrawarra</name>
					<LookAt>
						<longitude>145.4271468253005</longitude>
						<latitude>-37.65728753914716</latitude>
						<altitude>0</altitude>
						<heading>0</heading>
						<tilt>0</tilt>
						<range>1000</range>
					</LookAt>

					<Point>
						<coordinates>145.4271468253005,-37.65728753914716</coordinates>
					</Point>
				</Placemark>
				<Placemark>
					<name>Healesville</name>
					<LookAt>
						<longitude>145.5098173494475</longitude>
						<latitude>-37.65553832633141</latitude>
						<altitude>0</altitude>
						<heading>0</heading>
						<tilt>0</tilt>
						<range>1000</range>
					</LookAt>

					<Point>
						<coordinates>145.5098173494475,-37.65553832633141</coordinates>
					</Point>
				</Placemark>
				
			</Folder>
			<Folder>
				<name>Ringwood to Belgrave</name>
				<Placemark>
					<name>Heathmont</name>
					<LookAt>
						<longitude>145.2441687790267</longitude>
						<latitude>-37.82804108785177</latitude>
						<altitude>0</altitude>
						<heading>0</heading>
						<tilt>0</tilt>
						<range>1000</range>
					</LookAt>

					<Point>
						<coordinates>145.2441687790267,-37.82804108785177</coordinates>
					</Point>
				</Placemark>
				<Placemark>
					<name>Bayswater</name>
					<LookAt>
						<longitude>145.2682744927904</longitude>
						<latitude>-37.84171515563867</latitude>
						<altitude>0</altitude>
						<heading>0</heading>
						<tilt>0</tilt>
						<range>1000</range>
					</LookAt>

					<Point>
						<coordinates>145.2682744927904,-37.84171515563867</coordinates>
					</Point>
				</Placemark>
				<Placemark>
					<name>Boronia</name>
					<LookAt>
						<longitude>145.2848036782498</longitude>
						<latitude>-37.86038438997367</latitude>
						<altitude>0</altitude>
						<heading>0</heading>
						<tilt>0</tilt>
						<range>1000</range>
					</LookAt>

					<Point>
						<coordinates>145.2848036782498,-37.86038438997367</coordinates>
					</Point>
				</Placemark>
				<Placemark>
					<name>Ferntree Gully</name>
					<LookAt>
						<longitude>145.2954108152525</longitude>
						<latitude>-37.88168144135306</latitude>
						<altitude>0</altitude>
						<heading>0</heading>
						<tilt>0</tilt>
						<range>1000</range>
					</LookAt>

					<Point>
						<coordinates>145.2954108152525,-37.88168144135306</coordinates>
					</Point>
				</Placemark>
				<Placemark>
					<name>Upper Ferntree Gully</name>
					<LookAt>
						<longitude>145.3082189535307</longitude>
						<latitude>-37.89290080815393</latitude>
						<altitude>0</altitude>
						<heading>0</heading>
						<tilt>0</tilt>
						<range>1000</range>
					</LookAt>

					<Point>
						<coordinates>145.3082189535307,-37.89290080815393</coordinates>
					</Point>
				</Placemark>
				<Placemark>
					<name>Upwey</name>
					<LookAt>
						<longitude>145.3308218515881</longitude>
						<latitude>-37.90339489973984</latitude>
						<altitude>0</altitude>
						<heading>0</heading>
						<tilt>0</tilt>
						<range>1000</range>
					</LookAt>

					<Point>
						<coordinates>145.3308218515881,-37.90339489973984</coordinates>
					</Point>
				</Placemark>
				<Placemark>
					<name>Tecoma</name>
					<LookAt>
						<longitude>145.3425433010916</longitude>
						<latitude>-37.90758042704074</latitude>
						<altitude>0</altitude>
						<heading>0</heading>
						<tilt>0</tilt>
						<range>1000</range>
					</LookAt>

					<Point>
						<coordinates>145.3425433010916,-37.90758042704074</coordinates>
					</Point>
				</Placemark>
				<Placemark>
					<name>Belgrave</name>
					<LookAt>
						<longitude>145.3547499823959</longitude>
						<latitude>-37.90915154142473</latitude>
						<altitude>0</altitude>
						<heading>0</heading>
						<tilt>0</tilt>
						<range>1000</range>
					</LookAt>

					<Point>
						<coordinates>145.3547499823959,-37.90915154142473</coordinates>
					</Point>
				</Placemark>
				
			</Folder>
			<Folder>
				<name>Belgrave to Emerald Lake ( &quot;Puffing Billy&quot; )</name>
				<Placemark>
					<name>Belgrave ( &quot;Puffing Billy&quot; )</name>
					<LookAt>
						<longitude>145.3564184385094</longitude>
						<latitude>-37.90760634395652</latitude>
						<altitude>0</altitude>
						<heading>0</heading>
						<tilt>0</tilt>
						<range>1000</range>
					</LookAt>

					<Point>
						<coordinates>145.3564184385094,-37.90760634395652</coordinates>
					</Point>
				</Placemark>
				<Placemark>
					<name>Selby</name>
					<LookAt>
						<longitude>145.3708985703543</longitude>
						<latitude>-37.91513979940824</latitude>
						<altitude>0</altitude>
						<heading>0</heading>
						<tilt>0</tilt>
						<range>1000</range>
					</LookAt>

					<Point>
						<coordinates>145.3708985703543,-37.91513979940824</coordinates>
					</Point>
				</Placemark>
				<Placemark>
					<name>Menzies Creek</name>
					<LookAt>
						<longitude>145.4047680730151</longitude>
						<latitude>-37.92072583497088</latitude>
						<altitude>0</altitude>
						<heading>0</heading>
						<tilt>0</tilt>
						<range>1000</range>
					</LookAt>

					<Point>
						<coordinates>145.4047680730151,-37.92072583497088</coordinates>
					</Point>
				</Placemark>
				<Placemark>
					<name>Clematis</name>
					<LookAt>
						<longitude>145.4238883455402</longitude>
						<latitude>-37.92849211339406</latitude>
						<altitude>0</altitude>
						<heading>0</heading>
						<tilt>0</tilt>
						<range>1000</range>
					</LookAt>

					<Point>
						<coordinates>145.4238883455402,-37.92849211339406</coordinates>
					</Point>
				</Placemark>
				<Placemark>
					<name>Emerald</name>
					<LookAt>
						<longitude>145.4395360032974</longitude>
						<latitude>-37.93380966524801</latitude>
						<altitude>0</altitude>
						<heading>0</heading>
						<tilt>0</tilt>
						<range>1000</range>
					</LookAt>

					<Point>
						<coordinates>145.4395360032974,-37.93380966524801</coordinates>
					</Point>
				</Placemark>
				<Placemark>
					<name>Nobelius</name>
					<LookAt>
						<longitude>145.4545310279987</longitude>
						<latitude>-37.93483390534067</latitude>
						<altitude>0</altitude>
						<heading>0</heading>
						<tilt>0</tilt>
						<range>1000</range>
					</LookAt>

					<Point>
						<coordinates>145.4545310279987,-37.93483390534067</coordinates>
					</Point>
				</Placemark>
				<Placemark>
					<name>Lakeside ( Emerald Lake )</name>
					<LookAt>
						<longitude>145.4603387745522</longitude>
						<latitude>-37.93131956326397</latitude>
						<altitude>0</altitude>
						<heading>0</heading>
						<tilt>0</tilt>
						<range>1000</range>
					</LookAt>

					<Point>
						<coordinates>145.4603387745522,-37.93131956326397</coordinates>
					</Point>
				</Placemark>
				
			</Folder>
			<Folder>
				<name>N.Melbourne to Sunshine</name>
				<Placemark>
					<name>South Kensington</name>
					<LookAt>
						<longitude>144.9250319271369</longitude>
						<latitude>-37.79958934614545</latitude>
						<altitude>0</altitude>
						<heading>0</heading>
						<tilt>0</tilt>
						<range>1000</range>
					</LookAt>

					<Point>
						<coordinates>144.9250319271369,-37.79958934614545</coordinates>
					</Point>
				</Placemark>
				<Placemark>
					<name>Footscray</name>
					<LookAt>
						<longitude>144.902263201902</longitude>
						<latitude>-37.80188899071512</latitude>
						<altitude>0</altitude>
						<heading>0</heading>
						<tilt>0</tilt>
						<range>1000</range>
					</LookAt>

					<Point>
						<coordinates>144.902263201902,-37.80188899071512</coordinates>
					</Point>
				</Placemark>
				<Placemark>
					<name>Middle Footscray</name>
					<LookAt>
						<longitude>144.891524760907</longitude>
						<latitude>-37.80251991188875</latitude>
						<altitude>0</altitude>
						<heading>0</heading>
						<tilt>0</tilt>
						<range>1000</range>
					</LookAt>

					<Point>
						<coordinates>144.891524760907,-37.80251991188875</coordinates>
					</Point>
				</Placemark>
				<Placemark>
					<name>West Footscray</name>
					<LookAt>
						<longitude>144.8854387960508</longitude>
						<latitude>-37.80178653950822</latitude>
						<altitude>0</altitude>
						<heading>0</heading>
						<tilt>0</tilt>
						<range>1000</range>
					</LookAt>

					<Point>
						<coordinates>144.8854387960508,-37.80178653950822</coordinates>
					</Point>
				</Placemark>
				<Placemark>
					<name>Tottenham</name>
					<LookAt>
						<longitude>144.8632424640566</longitude>
						<latitude>-37.79935394728354</latitude>
						<altitude>0</altitude>
						<heading>0</heading>
						<tilt>0</tilt>
						<range>1000</range>
					</LookAt>

					<Point>
						<coordinates>144.8632424640566,-37.79935394728354</coordinates>
					</Point>
				</Placemark>
				<Placemark>
					<name>Sunshine</name>
					<LookAt>
						<longitude>144.8323992361983</longitude>
						<latitude>-37.78790168946163</latitude>
						<altitude>0</altitude>
						<heading>0</heading>
						<tilt>0</tilt>
						<range>1000</range>
					</LookAt>

					<Point>
						<coordinates>144.8323992361983,-37.78790168946163</coordinates>
					</Point>
				</Placemark>
				
			</Folder>
			<Folder>
				<name>Sunshine to Melton</name>
				<Placemark>
					<name>Ardeer</name>
					<LookAt>
						<longitude>144.8006792966155</longitude>
						<latitude>-37.78285693336478</latitude>
						<altitude>0</altitude>
						<heading>0</heading>
						<tilt>0</tilt>
						<range>1000</range>
					</LookAt>

					<Point>
						<coordinates>144.8006792966155,-37.78285693336478</coordinates>
					</Point>
				</Placemark>
				<Placemark>
					<name>Deer Park</name>
					<LookAt>
						<longitude>144.7716790567902</longitude>
						<latitude>-37.77740399549659</latitude>
						<altitude>0</altitude>
						<heading>0</heading>
						<tilt>0</tilt>
						<range>1000</range>
					</LookAt>

					<Point>
						<coordinates>144.7716790567902,-37.77740399549659</coordinates>
					</Point>
				</Placemark>
				<Placemark>
					<name>Rockbank</name>
					<LookAt>
						<longitude>144.6504290582901</longitude>
						<latitude>-37.7286326982325</latitude>
						<altitude>0</altitude>
						<heading>0</heading>
						<tilt>0</tilt>
						<range>1000</range>
					</LookAt>

					<Point>
						<coordinates>144.6504290582901,-37.7286326982325</coordinates>
					</Point>
				</Placemark>
				<Placemark>
					<name>Melton</name>
					<LookAt>
						<longitude>144.5726293140234</longitude>
						<latitude>-37.70309018007281</latitude>
						<altitude>0</altitude>
						<heading>0</heading>
						<tilt>0</tilt>
						<range>1000</range>
					</LookAt>

					<Point>
						<coordinates>144.5726293140234,-37.70309018007282</coordinates>
					</Point>
				</Placemark>
				
			</Folder>
			<Folder>
				<name>Sunshine to Sunbury</name>
				<Placemark>
					<name>Albion</name>
					<LookAt>
						<longitude>144.8242656641518</longitude>
						<latitude>-37.77718078717499</latitude>
						<altitude>0</altitude>
						<heading>0</heading>
						<tilt>0</tilt>
						<range>1000</range>
					</LookAt>

					<Point>
						<coordinates>144.8242656641518,-37.77718078717499</coordinates>
					</Point>
				</Placemark>
				<Placemark>
					<name>Ginifer</name>
					<LookAt>
						<longitude>144.8095227147273</longitude>
						<latitude>-37.75751664073433</latitude>
						<altitude>0</altitude>
						<heading>0</heading>
						<tilt>0</tilt>
						<range>1000</range>
					</LookAt>

					<Point>
						<coordinates>144.8095227147273,-37.75751664073433</coordinates>
					</Point>
				</Placemark>
				<Placemark>
					<name>St.Albans</name>
					<LookAt>
						<longitude>144.7998069849265</longitude>
						<latitude>-37.74440106794658</latitude>
						<altitude>0</altitude>
						<heading>0</heading>
						<tilt>0</tilt>
						<range>1000</range>
					</LookAt>

					<Point>
						<coordinates>144.7998069849265,-37.74440106794658</coordinates>
					</Point>
				</Placemark>
				<Placemark>
					<name>Keilor Plains</name>
					<LookAt>
						<longitude>144.7938149449231</longitude>
						<latitude>-37.72923029452418</latitude>
						<altitude>0</altitude>
						<heading>0</heading>
						<tilt>0</tilt>
						<range>1000</range>
					</LookAt>

					<Point>
						<coordinates>144.7938149449231,-37.72923029452418</coordinates>
					</Point>
				</Placemark>
				<Placemark>
					<name>Watergardens</name>
					<LookAt>
						<longitude>144.7739903417412</longitude>
						<latitude>-37.7007217763164</latitude>
						<altitude>0</altitude>
						<heading>0</heading>
						<tilt>0</tilt>
						<range>1000</range>
					</LookAt>

					<Point>
						<coordinates>144.7739903417412,-37.7007217763164</coordinates>
					</Point>
				</Placemark>
				<Placemark>
					<name>Sydenham</name>
					<LookAt>
						<longitude>144.7697365622807</longitude>
						<latitude>-37.69511313288076</latitude>
						<altitude>0</altitude>
						<heading>0</heading>
						<tilt>0</tilt>
						<range>1000</range>
					</LookAt>

					<Point>
						<coordinates>144.7697365622807,-37.69511313288076</coordinates>
					</Point>
				</Placemark>
				<Placemark>
					<name>Diggers Rest</name>
					<LookAt>
						<longitude>144.7201531268391</longitude>
						<latitude>-37.62798997405751</latitude>
						<altitude>0</altitude>
						<heading>0</heading>
						<tilt>0</tilt>
						<range>1000</range>
					</LookAt>

					<Point>
						<coordinates>144.7201531268391,-37.62798997405751</coordinates>
					</Point>
				</Placemark>
				<Placemark>
					<name>Sunbury</name>
					<LookAt>
						<longitude>144.728567244104</longitude>
						<latitude>-37.579422082042</latitude>
						<altitude>0</altitude>
						<heading>0</heading>
						<tilt>0</tilt>
						<range>1000</range>
					</LookAt>

					<Point>
						<coordinates>144.728567244104,-37.579422082042</coordinates>
					</Point>
				</Placemark>
				
			</Folder>
			<Folder>
				<name>Footscray to Williamstown</name>
				<Placemark>
					<name>Seddon</name>
					<LookAt>
						<longitude>144.8960567552828</longitude>
						<latitude>-37.80877513525239</latitude>
						<altitude>0</altitude>
						<heading>0</heading>
						<tilt>0</tilt>
						<range>1000</range>
					</LookAt>

					<Point>
						<coordinates>144.8960567552828,-37.80877513525239</coordinates>
					</Point>
				</Placemark>
				<Placemark>
					<name>Yarraville</name>
					<LookAt>
						<longitude>144.8900419533385</longitude>
						<latitude>-37.81588036116118</latitude>
						<altitude>0</altitude>
						<heading>0</heading>
						<tilt>0</tilt>
						<range>1000</range>
					</LookAt>

					<Point>
						<coordinates>144.8900419533385,-37.81588036116118</coordinates>
					</Point>
				</Placemark>
				<Placemark>
					<name>Spotswood</name>
					<LookAt>
						<longitude>144.8861033173334</longitude>
						<latitude>-37.8308783319065</latitude>
						<altitude>0</altitude>
						<heading>0</heading>
						<tilt>0</tilt>
						<range>1000</range>
					</LookAt>

					<Point>
						<coordinates>144.8861033173334,-37.8308783319065</coordinates>
					</Point>
				</Placemark>
				<Placemark>
					<name>Newport</name>
					<LookAt>
						<longitude>144.8839137020569</longitude>
						<latitude>-37.84241653958091</latitude>
						<altitude>0</altitude>
						<heading>0</heading>
						<tilt>0</tilt>
						<range>1000</range>
					</LookAt>

					<Point>
						<coordinates>144.8839137020569,-37.84241653958091</coordinates>
					</Point>
				</Placemark>
				<Placemark>
					<name>North Williamstown</name>
					<LookAt>
						<longitude>144.8890234134034</longitude>
						<latitude>-37.85693935919511</latitude>
						<altitude>0</altitude>
						<heading>0</heading>
						<tilt>0</tilt>
						<range>1000</range>
					</LookAt>

					<Point>
						<coordinates>144.8890234134034,-37.85693935919511</coordinates>
					</Point>
				</Placemark>
				<Placemark>
					<name>Williamstown Beach</name>
					<LookAt>
						<longitude>144.8949192092832</longitude>
						<latitude>-37.86424036430778</latitude>
						<altitude>0</altitude>
						<heading>0</heading>
						<tilt>0</tilt>
						<range>1000</range>
					</LookAt>

					<Point>
						<coordinates>144.8949192092832,-37.86424036430778</coordinates>
					</Point>
				</Placemark>
				<Placemark>
					<name>Williamstown</name>
					<LookAt>
						<longitude>144.9057719672774</longitude>
						<latitude>-37.86791045369412</latitude>
						<altitude>0</altitude>
						<heading>0</heading>
						<tilt>0</tilt>
						<range>1000</range>
					</LookAt>

					<Point>
						<coordinates>144.9057719672774,-37.86791045369412</coordinates>
					</Point>
				</Placemark>
				
			</Folder>
			<Folder>
				<name>Newport to Werribee</name>
				<Placemark>
					<name>Seaholme</name>
					<LookAt>
						<longitude>144.8409362716626</longitude>
						<latitude>-37.86784080135466</latitude>
						<altitude>0</altitude>
						<heading>0</heading>
						<tilt>0</tilt>
						<range>1000</range>
					</LookAt>

					<Point>
						<coordinates>144.8409362716626,-37.86784080135466</coordinates>
					</Point>
				</Placemark>
				<Placemark>
					<name>Altona</name>
					<LookAt>
						<longitude>144.8301200896309</longitude>
						<latitude>-37.86696095515405</latitude>
						<altitude>0</altitude>
						<heading>0</heading>
						<tilt>0</tilt>
						<range>1000</range>
					</LookAt>

					<Point>
						<coordinates>144.8301200896309,-37.86696095515405</coordinates>
					</Point>
				</Placemark>
				<Placemark>
					<name>Westona</name>
					<LookAt>
						<longitude>144.813744102715</longitude>
						<latitude>-37.86493230357851</latitude>
						<altitude>0</altitude>
						<heading>0</heading>
						<tilt>0</tilt>
						<range>1000</range>
					</LookAt>

					<Point>
						<coordinates>144.813744102715,-37.86493230357851</coordinates>
					</Point>
				</Placemark>
				<Placemark>
					<name>Laverton</name>
					<LookAt>
						<longitude>144.7729533889564</longitude>
						<latitude>-37.86373298503715</latitude>
						<altitude>0</altitude>
						<heading>0</heading>
						<tilt>0</tilt>
						<range>1000</range>
					</LookAt>

					<Point>
						<coordinates>144.7729533889564,-37.86373298503715</coordinates>
					</Point>
				</Placemark>
				<Placemark>
					<name>Aircraft</name>
					<LookAt>
						<longitude>144.7601807937679</longitude>
						<latitude>-37.86684365575833</latitude>
						<altitude>0</altitude>
						<heading>0</heading>
						<tilt>0</tilt>
						<range>1000</range>
					</LookAt>

					<Point>
						<coordinates>144.7601807937679,-37.86684365575833</coordinates>
					</Point>
				</Placemark>
				<Placemark>
					<name>Hoppers Crossing</name>
					<LookAt>
						<longitude>144.7016144848094</longitude>
						<latitude>-37.88316806854065</latitude>
						<altitude>0</altitude>
						<heading>0</heading>
						<tilt>0</tilt>
						<range>1000</range>
					</LookAt>

					<Point>
						<coordinates>144.7016144848094,-37.88316806854065</coordinates>
					</Point>
				</Placemark>
				<Placemark>
					<name>Werribee</name>
					<LookAt>
						<longitude>144.6611497488245</longitude>
						<latitude>-37.89953522310785</latitude>
						<altitude>0</altitude>
						<heading>0</heading>
						<tilt>0</tilt>
						<range>1000</range>
					</LookAt>

					<Point>
						<coordinates>144.6611497488245,-37.89953522310785</coordinates>
					</Point>
				</Placemark>
				
			</Folder>
			<Folder>
				<name>N.Melbourne to Broadmeadows</name>
				<Placemark>
					<name>Kensington</name>
					<LookAt>
						<longitude>144.9306783201158</longitude>
						<latitude>-37.79367079471837</latitude>
						<altitude>0</altitude>
						<heading>0</heading>
						<tilt>0</tilt>
						<range>1000</range>
					</LookAt>

					<Point>
						<coordinates>144.9306783201158,-37.79367079471837</coordinates>
					</Point>
				</Placemark>
				<Placemark>
					<name>Newmarket</name>
					<LookAt>
						<longitude>144.9291241281041</longitude>
						<latitude>-37.78743827632663</latitude>
						<altitude>0</altitude>
						<heading>0</heading>
						<tilt>0</tilt>
						<range>1000</range>
					</LookAt>

					<Point>
						<coordinates>144.9291241281041,-37.78743827632663</coordinates>
					</Point>
				</Placemark>
				<Placemark>
					<name>Ascot Vale</name>
					<LookAt>
						<longitude>144.9217487459908</longitude>
						<latitude>-37.77484865497379</latitude>
						<altitude>0</altitude>
						<heading>0</heading>
						<tilt>0</tilt>
						<range>1000</range>
					</LookAt>

					<Point>
						<coordinates>144.9217487459908,-37.77484865497379</coordinates>
					</Point>
				</Placemark>
				<Placemark>
					<name>Moonee Ponds</name>
					<LookAt>
						<longitude>144.9194623217485</longitude>
						<latitude>-37.76548732103294</latitude>
						<altitude>0</altitude>
						<heading>0</heading>
						<tilt>0</tilt>
						<range>1000</range>
					</LookAt>

					<Point>
						<coordinates>144.9194623217485,-37.76548732103294</coordinates>
					</Point>
				</Placemark>
				<Placemark>
					<name>Essendon</name>
					<LookAt>
						<longitude>144.9164567119871</longitude>
						<latitude>-37.75659823394296</latitude>
						<altitude>0</altitude>
						<heading>0</heading>
						<tilt>0</tilt>
						<range>1000</range>
					</LookAt>

					<Point>
						<coordinates>144.9164567119871,-37.75659823394297</coordinates>
					</Point>
				</Placemark>
				<Placemark>
					<name>Glenbervie</name>
					<LookAt>
						<longitude>144.9208495655191</longitude>
						<latitude>-37.74743813099148</latitude>
						<altitude>0</altitude>
						<heading>0</heading>
						<tilt>0</tilt>
						<range>1000</range>
					</LookAt>

					<Point>
						<coordinates>144.9208495655191,-37.74743813099148</coordinates>
					</Point>
				</Placemark>
				<Placemark>
					<name>Strathmore</name>
					<LookAt>
						<longitude>144.9272073304587</longitude>
						<latitude>-37.7438877648288</latitude>
						<altitude>0</altitude>
						<heading>0</heading>
						<tilt>0</tilt>
						<range>1000</range>
					</LookAt>

					<Point>
						<coordinates>144.9272073304587,-37.7438877648288</coordinates>
					</Point>
				</Placemark>
				<Placemark>
					<name>Pascoe Vale</name>
					<LookAt>
						<longitude>144.928590867774</longitude>
						<latitude>-37.73174510601729</latitude>
						<altitude>0</altitude>
						<heading>0</heading>
						<tilt>0</tilt>
						<range>1000</range>
					</LookAt>

					<Point>
						<coordinates>144.928590867774,-37.73174510601729</coordinates>
					</Point>
				</Placemark>
				<Placemark>
					<name>Oak Park</name>
					<LookAt>
						<longitude>144.9217678700703</longitude>
						<latitude>-37.7183173034633</latitude>
						<altitude>0</altitude>
						<heading>0</heading>
						<tilt>0</tilt>
						<range>1000</range>
					</LookAt>

					<Point>
						<coordinates>144.9217678700703,-37.71831730346331</coordinates>
					</Point>
				</Placemark>
				<Placemark>
					<name>Glenroy</name>
					<LookAt>
						<longitude>144.9172283520844</longitude>
						<latitude>-37.70457683722682</latitude>
						<altitude>0</altitude>
						<heading>0</heading>
						<tilt>0</tilt>
						<range>1000</range>
					</LookAt>

					<Point>
						<coordinates>144.9172283520844,-37.70457683722682</coordinates>
					</Point>
				</Placemark>
				<Placemark>
					<name>Jacana</name>
					<LookAt>
						<longitude>144.9157543897792</longitude>
						<latitude>-37.69494788530934</latitude>
						<altitude>0</altitude>
						<heading>0</heading>
						<tilt>0</tilt>
						<range>1000</range>
					</LookAt>

					<Point>
						<coordinates>144.9157543897792,-37.69494788530934</coordinates>
					</Point>
				</Placemark>
				<Placemark>
					<name>Broadmeadows</name>
					<LookAt>
						<longitude>144.9189085173175</longitude>
						<latitude>-37.68313670640065</latitude>
						<altitude>0</altitude>
						<heading>0</heading>
						<tilt>0</tilt>
						<range>1000</range>
					</LookAt>

					<Point>
						<coordinates>144.9189085173175,-37.68313670640065</coordinates>
					</Point>
				</Placemark>
				
			</Folder>
			<Folder>
				<name>Newmarket to Flemington</name>
				<Placemark>
					<name>Showgrounds</name>
					<LookAt>
						<longitude>144.9147905083055</longitude>
						<latitude>-37.78360125927681</latitude>
						<altitude>0</altitude>
						<heading>0</heading>
						<tilt>0</tilt>
						<range>1000</range>
					</LookAt>

					<Point>
						<coordinates>144.9147905083055,-37.78360125927681</coordinates>
					</Point>
				</Placemark>
				<Placemark>
					<name>Flemington Racecourse</name>
					<LookAt>
						<longitude>144.9071972794491</longitude>
						<latitude>-37.78780314989013</latitude>
						<altitude>0</altitude>
						<heading>0</heading>
						<tilt>0</tilt>
						<range>1000</range>
					</LookAt>

					<Point>
						<coordinates>144.9071972794491,-37.78780314989013</coordinates>
					</Point>
				</Placemark>
				
			</Folder>
			<Folder>
				<name>N.Melbourne to Upfield</name>
				<Placemark>
					<name>Macaulay</name>
					<LookAt>
						<longitude>144.9357612132197</longitude>
						<latitude>-37.79434869075095</latitude>
						<altitude>0</altitude>
						<heading>0</heading>
						<tilt>0</tilt>
						<range>1000</range>
					</LookAt>

					<Point>
						<coordinates>144.9357612132197,-37.79434869075095</coordinates>
					</Point>
				</Placemark>
				<Placemark>
					<name>Flemington Bridge</name>
					<LookAt>
						<longitude>144.9392142022028</longitude>
						<latitude>-37.78853494441896</latitude>
						<altitude>0</altitude>
						<heading>0</heading>
						<tilt>0</tilt>
						<range>1000</range>
					</LookAt>

					<Point>
						<coordinates>144.9392142022028,-37.78853494441897</coordinates>
					</Point>
				</Placemark>
				<Placemark>
					<name>Royal Park</name>
					<LookAt>
						<longitude>144.9523065966987</longitude>
						<latitude>-37.78133172260788</latitude>
						<altitude>0</altitude>
						<heading>0</heading>
						<tilt>0</tilt>
						<range>1000</range>
					</LookAt>

					<Point>
						<coordinates>144.9523065966987,-37.78133172260788</coordinates>
					</Point>
				</Placemark>
				<Placemark>
					<name>Jewell</name>
					<LookAt>
						<longitude>144.9589611568559</longitude>
						<latitude>-37.77459539523541</latitude>
						<altitude>0</altitude>
						<heading>0</heading>
						<tilt>0</tilt>
						<range>1000</range>
					</LookAt>

					<Point>
						<coordinates>144.9589611568559,-37.77459539523542</coordinates>
					</Point>
				</Placemark>
				<Placemark>
					<name>Brunswick</name>
					<LookAt>
						<longitude>144.9596628724156</longitude>
						<latitude>-37.76817753364379</latitude>
						<altitude>0</altitude>
						<heading>0</heading>
						<tilt>0</tilt>
						<range>1000</range>
					</LookAt>

					<Point>
						<coordinates>144.9596628724156,-37.76817753364379</coordinates>
					</Point>
				</Placemark>
				<Placemark>
					<name>Anstey</name>
					<LookAt>
						<longitude>144.9607879493121</longitude>
						<latitude>-37.7614152374793</latitude>
						<altitude>0</altitude>
						<heading>0</heading>
						<tilt>0</tilt>
						<range>1000</range>
					</LookAt>

					<Point>
						<coordinates>144.9607879493121,-37.7614152374793</coordinates>
					</Point>
				</Placemark>
				<Placemark>
					<name>Moreland</name>
					<LookAt>
						<longitude>144.9620269311033</longitude>
						<latitude>-37.75399825626796</latitude>
						<altitude>0</altitude>
						<heading>0</heading>
						<tilt>0</tilt>
						<range>1000</range>
					</LookAt>

					<Point>
						<coordinates>144.9620269311033,-37.75399825626796</coordinates>
					</Point>
				</Placemark>
				<Placemark>
					<name>Coburg</name>
					<LookAt>
						<longitude>144.9633892683723</longitude>
						<latitude>-37.74286333400799</latitude>
						<altitude>0</altitude>
						<heading>0</heading>
						<tilt>0</tilt>
						<range>1000</range>
					</LookAt>

					<Point>
						<coordinates>144.9633892683723,-37.74286333400799</coordinates>
					</Point>
				</Placemark>
				<Placemark>
					<name>Batman</name>
					<LookAt>
						<longitude>144.9627401834552</longitude>
						<latitude>-37.73261657240507</latitude>
						<altitude>0</altitude>
						<heading>0</heading>
						<tilt>0</tilt>
						<range>1000</range>
					</LookAt>

					<Point>
						<coordinates>144.9627401834552,-37.73261657240508</coordinates>
					</Point>
				</Placemark>
				<Placemark>
					<name>Merlynston</name>
					<LookAt>
						<longitude>144.9611946051211</longitude>
						<latitude>-37.72123739526694</latitude>
						<altitude>0</altitude>
						<heading>0</heading>
						<tilt>0</tilt>
						<range>1000</range>
					</LookAt>

					<Point>
						<coordinates>144.9611946051211,-37.72123739526694</coordinates>
					</Point>
				</Placemark>
				<Placemark>
					<name>Fawkner</name>
					<LookAt>
						<longitude>144.9604217503624</longitude>
						<latitude>-37.71498417622284</latitude>
						<altitude>0</altitude>
						<heading>0</heading>
						<tilt>0</tilt>
						<range>1000</range>
					</LookAt>

					<Point>
						<coordinates>144.9604217503624,-37.71498417622284</coordinates>
					</Point>
				</Placemark>
				<Placemark>
					<name>Gowrie</name>
					<LookAt>
						<longitude>144.9588974435452</longitude>
						<latitude>-37.70100900443156</latitude>
						<altitude>0</altitude>
						<heading>0</heading>
						<tilt>0</tilt>
						<range>1000</range>
					</LookAt>

					<Point>
						<coordinates>144.9588974435452,-37.70100900443156</coordinates>
					</Point>
				</Placemark>
				<Placemark>
					<name>Upfield</name>
					<LookAt>
						<longitude>144.9465451292447</longitude>
						<latitude>-37.66521960271434</latitude>
						<altitude>0</altitude>
						<heading>0</heading>
						<tilt>0</tilt>
						<range>1000</range>
					</LookAt>

					<Point>
						<coordinates>144.9465451292447,-37.66521960271434</coordinates>
					</Point>
				</Placemark>
				
			</Folder>
			<Folder>
				<name>Melbourne to Clifton Hill</name>
				<Placemark>
					<name>Joliment</name>
					<LookAt>
						<longitude>144.9846014034991</longitude>
						<latitude>-37.81683301357393</latitude>
						<altitude>0</altitude>
						<heading>0</heading>
						<tilt>0</tilt>
						<range>1000</range>
					</LookAt>

					<Point>
						<coordinates>144.9846014034991,-37.81683301357393</coordinates>
					</Point>
				</Placemark>
				<Placemark>
					<name>West Richmond</name>
					<LookAt>
						<longitude>144.9918686396298</longitude>
						<latitude>-37.8145624510884</latitude>
						<altitude>0</altitude>
						<heading>0</heading>
						<tilt>0</tilt>
						<range>1000</range>
					</LookAt>

					<Point>
						<coordinates>144.9918686396298,-37.8145624510884</coordinates>
					</Point>
				</Placemark>
				<Placemark>
					<name>North Richmond</name>
					<LookAt>
						<longitude>144.9926227654956</longitude>
						<latitude>-37.81085212359768</latitude>
						<altitude>0</altitude>
						<heading>0</heading>
						<tilt>0</tilt>
						<range>1000</range>
					</LookAt>

					<Point>
						<coordinates>144.9926227654956,-37.81085212359768</coordinates>
					</Point>
				</Placemark>
				<Placemark>
					<name>Collingwood</name>
					<LookAt>
						<longitude>144.9938518233844</longitude>
						<latitude>-37.80495659162531</latitude>
						<altitude>0</altitude>
						<heading>0</heading>
						<tilt>0</tilt>
						<range>1000</range>
					</LookAt>

					<Point>
						<coordinates>144.9938518233844,-37.80495659162532</coordinates>
					</Point>
				</Placemark>
				<Placemark>
					<name>Victoria Park</name>
					<LookAt>
						<longitude>144.9945493520199</longitude>
						<latitude>-37.79958169508383</latitude>
						<altitude>0</altitude>
						<heading>0</heading>
						<tilt>0</tilt>
						<range>1000</range>
					</LookAt>

					<Point>
						<coordinates>144.9945493520199,-37.79958169508383</coordinates>
					</Point>
				</Placemark>
				<Placemark>
					<name>Clifton Hill</name>
					<LookAt>
						<longitude>144.9955215350915</longitude>
						<latitude>-37.7892788848743</latitude>
						<altitude>0</altitude>
						<heading>0</heading>
						<tilt>0</tilt>
						<range>1000</range>
					</LookAt>

					<Point>
						<coordinates>144.9955215350915,-37.7892788848743</coordinates>
					</Point>
				</Placemark>
				
			</Folder>
			<Folder>
				<name>Clifton Hill to Epping</name>
				<Placemark>
					<name>Rushall</name>
					<LookAt>
						<longitude>144.9927816351252</longitude>
						<latitude>-37.78336181679751</latitude>
						<altitude>0</altitude>
						<heading>0</heading>
						<tilt>0</tilt>
						<range>1000</range>
					</LookAt>

					<Point>
						<coordinates>144.9927816351252,-37.78336181679751</coordinates>
					</Point>
				</Placemark>
				<Placemark>
					<name>Merri</name>
					<LookAt>
						<longitude>144.9931274228885</longitude>
						<latitude>-37.77815104559864</latitude>
						<altitude>0</altitude>
						<heading>0</heading>
						<tilt>0</tilt>
						<range>1000</range>
					</LookAt>

					<Point>
						<coordinates>144.9931274228885,-37.77815104559864</coordinates>
					</Point>
				</Placemark>
				<Placemark>
					<name>Northcote</name>
					<LookAt>
						<longitude>144.9956646302613</longitude>
						<latitude>-37.76944962153775</latitude>
						<altitude>0</altitude>
						<heading>0</heading>
						<tilt>0</tilt>
						<range>1000</range>
					</LookAt>

					<Point>
						<coordinates>144.9956646302613,-37.76944962153775</coordinates>
					</Point>
				</Placemark>
				<Placemark>
					<name>Croxton</name>
					<LookAt>
						<longitude>144.997106360336</longitude>
						<latitude>-37.76449509854008</latitude>
						<altitude>0</altitude>
						<heading>0</heading>
						<tilt>0</tilt>
						<range>1000</range>
					</LookAt>

					<Point>
						<coordinates>144.997106360336,-37.76449509854008</coordinates>
					</Point>
				</Placemark>
				<Placemark>
					<name>Thornbury</name>
					<LookAt>
						<longitude>144.9984173781151</longitude>
						<latitude>-37.75513571289353</latitude>
						<altitude>0</altitude>
						<heading>0</heading>
						<tilt>0</tilt>
						<range>1000</range>
					</LookAt>

					<Point>
						<coordinates>144.9984173781151,-37.75513571289353</coordinates>
					</Point>
				</Placemark>
				<Placemark>
					<name>Bell</name>
					<LookAt>
						<longitude>145.0000144875006</longitude>
						<latitude>-37.74581353533444</latitude>
						<altitude>0</altitude>
						<heading>0</heading>
						<tilt>0</tilt>
						<range>1000</range>
					</LookAt>

					<Point>
						<coordinates>145.0000144875006,-37.74581353533444</coordinates>
					</Point>
				</Placemark>
				<Placemark>
					<name>Preston</name>
					<LookAt>
						<longitude>145.000259849588</longitude>
						<latitude>-37.73902696099576</latitude>
						<altitude>0</altitude>
						<heading>0</heading>
						<tilt>0</tilt>
						<range>1000</range>
					</LookAt>

					<Point>
						<coordinates>145.000259849588,-37.73902696099576</coordinates>
					</Point>
				</Placemark>
				<Placemark>
					<name>Regent</name>
					<LookAt>
						<longitude>145.0025274586352</longitude>
						<latitude>-37.72861143232842</latitude>
						<altitude>0</altitude>
						<heading>0</heading>
						<tilt>0</tilt>
						<range>1000</range>
					</LookAt>

					<Point>
						<coordinates>145.0025274586352,-37.72861143232842</coordinates>
					</Point>
				</Placemark>
				<Placemark>
					<name>Reservoir</name>
					<LookAt>
						<longitude>145.0065290243385</longitude>
						<latitude>-37.71707390845504</latitude>
						<altitude>0</altitude>
						<heading>0</heading>
						<tilt>0</tilt>
						<range>1000</range>
					</LookAt>

					<Point>
						<coordinates>145.0065290243385,-37.71707390845505</coordinates>
					</Point>
				</Placemark>
				<Placemark>
					<name>Ruthven</name>
					<LookAt>
						<longitude>145.0092353860034</longitude>
						<latitude>-37.70819923812753</latitude>
						<altitude>0</altitude>
						<heading>0</heading>
						<tilt>0</tilt>
						<range>1000</range>
					</LookAt>

					<Point>
						<coordinates>145.0092353860034,-37.70819923812753</coordinates>
					</Point>
				</Placemark>
				<Placemark>
					<name>Keon Park</name>
					<LookAt>
						<longitude>145.0117632492624</longitude>
						<latitude>-37.69386229531295</latitude>
						<altitude>0</altitude>
						<heading>0</heading>
						<tilt>0</tilt>
						<range>1000</range>
					</LookAt>

					<Point>
						<coordinates>145.0117632492624,-37.69386229531295</coordinates>
					</Point>
				</Placemark>
				<Placemark>
					<name>Thomastown</name>
					<LookAt>
						<longitude>145.0140403306562</longitude>
						<latitude>-37.68051877127491</latitude>
						<altitude>0</altitude>
						<heading>0</heading>
						<tilt>0</tilt>
						<range>1000</range>
					</LookAt>

					<Point>
						<coordinates>145.0140403306562,-37.68051877127491</coordinates>
					</Point>
				</Placemark>
				<Placemark>
					<name>Lalor</name>
					<LookAt>
						<longitude>145.0172451707805</longitude>
						<latitude>-37.66525453815883</latitude>
						<altitude>0</altitude>
						<heading>0</heading>
						<tilt>0</tilt>
						<range>1000</range>
					</LookAt>

					<Point>
						<coordinates>145.0172451707805,-37.66525453815883</coordinates>
					</Point>
				</Placemark>
				<Placemark>
					<name>Epping</name>
					<LookAt>
						<longitude>145.0279656568121</longitude>
						<latitude>-37.65287582280737</latitude>
						<altitude>0</altitude>
						<heading>0</heading>
						<tilt>0</tilt>
						<range>1000</range>
					</LookAt>

					<Point>
						<coordinates>145.0279656568121,-37.65287582280737</coordinates>
					</Point>
				</Placemark>
				
			</Folder>
			<Folder>
				<name>Clifton Hill to Hurstbridge</name>
				<Placemark>
					<name>Westgarth</name>
					<LookAt>
						<longitude>144.9997501867183</longitude>
						<latitude>-37.780358657964</latitude>
						<altitude>0</altitude>
						<heading>0</heading>
						<tilt>0</tilt>
						<range>1000</range>
					</LookAt>

					<Point>
						<coordinates>144.9997501867183,-37.780358657964</coordinates>
					</Point>
				</Placemark>
				<Placemark>
					<name>Dennis</name>
					<LookAt>
						<longitude>145.0087022311299</longitude>
						<latitude>-37.77932412934668</latitude>
						<altitude>0</altitude>
						<heading>0</heading>
						<tilt>0</tilt>
						<range>1000</range>
					</LookAt>

					<Point>
						<coordinates>145.0087022311299,-37.77932412934668</coordinates>
					</Point>
				</Placemark>
				<Placemark>
					<name>Fairfield</name>
					<LookAt>
						<longitude>145.0176738863248</longitude>
						<latitude>-37.77932060032067</latitude>
						<altitude>0</altitude>
						<heading>0</heading>
						<tilt>0</tilt>
						<range>1000</range>
					</LookAt>

					<Point>
						<coordinates>145.0176738863248,-37.77932060032068</coordinates>
					</Point>
				</Placemark>
				<Placemark>
					<name>Alphington</name>
					<LookAt>
						<longitude>145.0315335845985</longitude>
						<latitude>-37.77821218368392</latitude>
						<altitude>0</altitude>
						<heading>0</heading>
						<tilt>0</tilt>
						<range>1000</range>
					</LookAt>

					<Point>
						<coordinates>145.0315335845985,-37.77821218368392</coordinates>
					</Point>
				</Placemark>
				<Placemark>
					<name>Darebin</name>
					<LookAt>
						<longitude>145.0384533501592</longitude>
						<latitude>-37.77499035239243</latitude>
						<altitude>0</altitude>
						<heading>0</heading>
						<tilt>0</tilt>
						<range>1000</range>
					</LookAt>

					<Point>
						<coordinates>145.0384533501592,-37.77499035239243</coordinates>
					</Point>
				</Placemark>
				<Placemark>
					<name>Ivanhoe</name>
					<LookAt>
						<longitude>145.0455372761841</longitude>
						<latitude>-37.76883736877088</latitude>
						<altitude>0</altitude>
						<heading>0</heading>
						<tilt>0</tilt>
						<range>1000</range>
					</LookAt>

					<Point>
						<coordinates>145.0455372761841,-37.76883736877088</coordinates>
					</Point>
				</Placemark>
				<Placemark>
					<name>Eaglemont</name>
					<LookAt>
						<longitude>145.0541056384876</longitude>
						<latitude>-37.76337232780711</latitude>
						<altitude>0</altitude>
						<heading>0</heading>
						<tilt>0</tilt>
						<range>1000</range>
					</LookAt>

					<Point>
						<coordinates>145.0541056384876,-37.76337232780711</coordinates>
					</Point>
				</Placemark>
				<Placemark>
					<name>Heidelberg</name>
					<LookAt>
						<longitude>145.0608985090897</longitude>
						<latitude>-37.75721118695168</latitude>
						<altitude>0</altitude>
						<heading>0</heading>
						<tilt>0</tilt>
						<range>1000</range>
					</LookAt>

					<Point>
						<coordinates>145.0608985090897,-37.75721118695168</coordinates>
					</Point>
				</Placemark>
				<Placemark>
					<name>Rosanna</name>
					<LookAt>
						<longitude>145.0662053537055</longitude>
						<latitude>-37.74240816253046</latitude>
						<altitude>0</altitude>
						<heading>0</heading>
						<tilt>0</tilt>
						<range>1000</range>
					</LookAt>

					<Point>
						<coordinates>145.0662053537055,-37.74240816253046</coordinates>
					</Point>
				</Placemark>
				<Placemark>
					<name>Macleod</name>
					<LookAt>
						<longitude>145.0692949138119</longitude>
						<latitude>-37.72625548511209</latitude>
						<altitude>0</altitude>
						<heading>0</heading>
						<tilt>0</tilt>
						<range>1000</range>
					</LookAt>

					<Point>
						<coordinates>145.0692949138119,-37.72625548511209</coordinates>
					</Point>
				</Placemark>
				<Placemark>
					<name>Watsonia</name>
					<LookAt>
						<longitude>145.0834307130487</longitude>
						<latitude>-37.71130513243999</latitude>
						<altitude>0</altitude>
						<heading>0</heading>
						<tilt>0</tilt>
						<range>1000</range>
					</LookAt>

					<Point>
						<coordinates>145.0834307130487,-37.71130513243999</coordinates>
					</Point>
				</Placemark>
				<Placemark>
					<name>Greensborough</name>
					<LookAt>
						<longitude>145.1083658848724</longitude>
						<latitude>-37.70352501387929</latitude>
						<altitude>0</altitude>
						<heading>0</heading>
						<tilt>0</tilt>
						<range>1000</range>
					</LookAt>

					<Point>
						<coordinates>145.1083658848724,-37.70352501387929</coordinates>
					</Point>
				</Placemark>
				<Placemark>
					<name>Montmorency</name>
					<LookAt>
						<longitude>145.12094806416</longitude>
						<latitude>-37.71468506637435</latitude>
						<altitude>0</altitude>
						<heading>0</heading>
						<tilt>0</tilt>
						<range>1000</range>
					</LookAt>

					<Point>
						<coordinates>145.12094806416,-37.71468506637435</coordinates>
					</Point>
				</Placemark>
				<Placemark>
					<name>Eltham</name>
					<LookAt>
						<longitude>145.147763928322</longitude>
						<latitude>-37.71386180559918</latitude>
						<altitude>0</altitude>
						<heading>0</heading>
						<tilt>0</tilt>
						<range>1000</range>
					</LookAt>

					<Point>
						<coordinates>145.147763928322,-37.71386180559918</coordinates>
					</Point>
				</Placemark>
				<Placemark>
					<name>Diamond Creek</name>
					<LookAt>
						<longitude>145.1587740777925</longitude>
						<latitude>-37.67341519845609</latitude>
						<altitude>0</altitude>
						<heading>0</heading>
						<tilt>0</tilt>
						<range>1000</range>
					</LookAt>

					<Point>
						<coordinates>145.1587740777925,-37.67341519845609</coordinates>
					</Point>
				</Placemark>
				<Placemark>
					<name>Wattle Creek</name>
					<LookAt>
						<longitude>145.1821264096356</longitude>
						<latitude>-37.66356949018671</latitude>
						<altitude>0</altitude>
						<heading>0</heading>
						<tilt>0</tilt>
						<range>1000</range>
					</LookAt>

					<Point>
						<coordinates>145.1821264096356,-37.66356949018672</coordinates>
					</Point>
				</Placemark>
				<Placemark>
					<name>Hurstbridge</name>
					<LookAt>
						<longitude>145.1919361800489</longitude>
						<latitude>-37.63989710809202</latitude>
						<altitude>0</altitude>
						<heading>0</heading>
						<tilt>0</tilt>
						<range>1000</range>
					</LookAt>

					<Point>
						<coordinates>145.1919361800489,-37.63989710809203</coordinates>
					</Point>
				</Placemark>
				
			</Folder>
			<Folder>
				<name>Richmond to Caulfield</name>
				<Placemark>
					<name>South Yarra</name>
					<LookAt>
						<longitude>144.9926312786043</longitude>
						<latitude>-37.8378311659442</latitude>
						<altitude>0</altitude>
						<heading>0</heading>
						<tilt>0</tilt>
						<range>1000</range>
					</LookAt>

					<Point>
						<coordinates>144.9926312786043,-37.8378311659442</coordinates>
					</Point>
				</Placemark>
				<Placemark>
					<name>Hawksburn</name>
					<LookAt>
						<longitude>145.0019725868759</longitude>
						<latitude>-37.84459325325146</latitude>
						<altitude>0</altitude>
						<heading>0</heading>
						<tilt>0</tilt>
						<range>1000</range>
					</LookAt>

					<Point>
						<coordinates>145.0019725868759,-37.84459325325146</coordinates>
					</Point>
				</Placemark>
				<Placemark>
					<name>Toorak</name>
					<LookAt>
						<longitude>145.0138754730059</longitude>
						<latitude>-37.85079017859687</latitude>
						<altitude>0</altitude>
						<heading>0</heading>
						<tilt>0</tilt>
						<range>1000</range>
					</LookAt>

					<Point>
						<coordinates>145.0138754730059,-37.85079017859687</coordinates>
					</Point>
				</Placemark>
				<Placemark>
					<name>Armadale</name>
					<LookAt>
						<longitude>145.0192604644113</longitude>
						<latitude>-37.85617704436581</latitude>
						<altitude>0</altitude>
						<heading>0</heading>
						<tilt>0</tilt>
						<range>1000</range>
					</LookAt>

					<Point>
						<coordinates>145.0192604644113,-37.85617704436581</coordinates>
					</Point>
				</Placemark>
				<Placemark>
					<name>Malvern</name>
					<LookAt>
						<longitude>145.0293197561996</longitude>
						<latitude>-37.86609764902955</latitude>
						<altitude>0</altitude>
						<heading>0</heading>
						<tilt>0</tilt>
						<range>1000</range>
					</LookAt>

					<Point>
						<coordinates>145.0293197561996,-37.86609764902955</coordinates>
					</Point>
				</Placemark>
				<Placemark>
					<name>Caulfield</name>
					<LookAt>
						<longitude>145.042759122244</longitude>
						<latitude>-37.87761972276252</latitude>
						<altitude>0</altitude>
						<heading>0</heading>
						<tilt>0</tilt>
						<range>1000</range>
					</LookAt>

					<Point>
						<coordinates>145.042759122244,-37.87761972276252</coordinates>
					</Point>
				</Placemark>
				
			</Folder>
			<Folder>
				<name>Caulfield to Dandenong</name>
				<Placemark>
					<name>Carnegie</name>
					<LookAt>
						<longitude>145.0589398575214</longitude>
						<latitude>-37.88634170709484</latitude>
						<altitude>0</altitude>
						<heading>0</heading>
						<tilt>0</tilt>
						<range>1000</range>
					</LookAt>

					<Point>
						<coordinates>145.0589398575214,-37.88634170709484</coordinates>
					</Point>
				</Placemark>
				<Placemark>
					<name>Murrumbeena</name>
					<LookAt>
						<longitude>145.0682348332749</longitude>
						<latitude>-37.89047190648296</latitude>
						<altitude>0</altitude>
						<heading>0</heading>
						<tilt>0</tilt>
						<range>1000</range>
					</LookAt>

					<Point>
						<coordinates>145.0682348332749,-37.89047190648296</coordinates>
					</Point>
				</Placemark>
				<Placemark>
					<name>Hughesdale</name>
					<LookAt>
						<longitude>145.0779756273885</longitude>
						<latitude>-37.89494787856505</latitude>
						<altitude>0</altitude>
						<heading>0</heading>
						<tilt>0</tilt>
						<range>1000</range>
					</LookAt>

					<Point>
						<coordinates>145.0779756273885,-37.89494787856505</coordinates>
					</Point>
				</Placemark>
				<Placemark>
					<name>Oakleigh</name>
					<LookAt>
						<longitude>145.0890162002971</longitude>
						<latitude>-37.90052253236686</latitude>
						<altitude>0</altitude>
						<heading>0</heading>
						<tilt>0</tilt>
						<range>1000</range>
					</LookAt>

					<Point>
						<coordinates>145.0890162002971,-37.90052253236686</coordinates>
					</Point>
				</Placemark>
				<Placemark>
					<name>Huntingdale</name>
					<LookAt>
						<longitude>145.1028514982694</longitude>
						<latitude>-37.91129243033349</latitude>
						<altitude>0</altitude>
						<heading>0</heading>
						<tilt>0</tilt>
						<range>1000</range>
					</LookAt>

					<Point>
						<coordinates>145.1028514982694,-37.91129243033349</coordinates>
					</Point>
				</Placemark>
				<Placemark>
					<name>Clayton</name>
					<LookAt>
						<longitude>145.1216811109941</longitude>
						<latitude>-37.9252649980969</latitude>
						<altitude>0</altitude>
						<heading>0</heading>
						<tilt>0</tilt>
						<range>1000</range>
					</LookAt>

					<Point>
						<coordinates>145.1216811109941,-37.9252649980969</coordinates>
					</Point>
				</Placemark>
				<Placemark>
					<name>Westall</name>
					<LookAt>
						<longitude>145.1391120497286</longitude>
						<latitude>-37.93880202517035</latitude>
						<altitude>0</altitude>
						<heading>0</heading>
						<tilt>0</tilt>
						<range>1000</range>
					</LookAt>

					<Point>
						<coordinates>145.1391120497286,-37.93880202517035</coordinates>
					</Point>
				</Placemark>
				<Placemark>
					<name>Springvale</name>
					<LookAt>
						<longitude>145.1545151961406</longitude>
						<latitude>-37.95021321586341</latitude>
						<altitude>0</altitude>
						<heading>0</heading>
						<tilt>0</tilt>
						<range>1000</range>
					</LookAt>

					<Point>
						<coordinates>145.1545151961406,-37.95021321586341</coordinates>
					</Point>
				</Placemark>
				<Placemark>
					<name>Sandown Park</name>
					<LookAt>
						<longitude>145.163278177068</longitude>
						<latitude>-37.95695949075969</latitude>
						<altitude>0</altitude>
						<heading>0</heading>
						<tilt>0</tilt>
						<range>1000</range>
					</LookAt>

					<Point>
						<coordinates>145.163278177068,-37.95695949075969</coordinates>
					</Point>
				</Placemark>
				<Placemark>
					<name>Noble Park</name>
					<LookAt>
						<longitude>145.1772349052726</longitude>
						<latitude>-37.96764805152056</latitude>
						<altitude>0</altitude>
						<heading>0</heading>
						<tilt>0</tilt>
						<range>1000</range>
					</LookAt>

					<Point>
						<coordinates>145.1772349052726,-37.96764805152056</coordinates>
					</Point>
				</Placemark>
				<Placemark>
					<name>Yarraman</name>
					<LookAt>
						<longitude>145.1918715565469</longitude>
						<latitude>-37.97817139239903</latitude>
						<altitude>0</altitude>
						<heading>0</heading>
						<tilt>0</tilt>
						<range>1000</range>
					</LookAt>

					<Point>
						<coordinates>145.1918715565469,-37.97817139239903</coordinates>
					</Point>
				</Placemark>
				<Placemark>
					<name>Dandenong</name>
					<LookAt>
						<longitude>145.2073324207422</longitude>
						<latitude>-37.98906429282748</latitude>
						<altitude>0</altitude>
						<heading>0</heading>
						<tilt>0</tilt>
						<range>1000</range>
					</LookAt>

					<Point>
						<coordinates>145.2073324207422,-37.98906429282748</coordinates>
					</Point>
				</Placemark>
				
			</Folder>
			<Folder>
				<name>Caulfield to Frankston</name>
				<Placemark>
					<name>Glenhuntly</name>
					<LookAt>
						<longitude>145.0422063677002</longitude>
						<latitude>-37.89027827722222</latitude>
						<altitude>0</altitude>
						<heading>0</heading>
						<tilt>0</tilt>
						<range>1000</range>
					</LookAt>

					<Point>
						<coordinates>145.0422063677002,-37.89027827722222</coordinates>
					</Point>
				</Placemark>
				<Placemark>
					<name>Ormond</name>
					<LookAt>
						<longitude>145.0394765553306</longitude>
						<latitude>-37.90276225904744</latitude>
						<altitude>0</altitude>
						<heading>0</heading>
						<tilt>0</tilt>
						<range>1000</range>
					</LookAt>

					<Point>
						<coordinates>145.0394765553306,-37.90276225904744</coordinates>
					</Point>
				</Placemark>
				<Placemark>
					<name>McKinnon</name>
					<LookAt>
						<longitude>145.0388340533668</longitude>
						<latitude>-37.91040710393671</latitude>
						<altitude>0</altitude>
						<heading>0</heading>
						<tilt>0</tilt>
						<range>1000</range>
					</LookAt>

					<Point>
						<coordinates>145.0388340533668,-37.91040710393672</coordinates>
					</Point>
				</Placemark>
				<Placemark>
					<name>Bentleigh</name>
					<LookAt>
						<longitude>145.0375408525139</longitude>
						<latitude>-37.91704666076058</latitude>
						<altitude>0</altitude>
						<heading>0</heading>
						<tilt>0</tilt>
						<range>1000</range>
					</LookAt>

					<Point>
						<coordinates>145.0375408525139,-37.91704666076058</coordinates>
					</Point>
				</Placemark>
				<Placemark>
					<name>Patterson</name>
					<LookAt>
						<longitude>145.0359796148112</longitude>
						<latitude>-37.9251590130442</latitude>
						<altitude>0</altitude>
						<heading>0</heading>
						<tilt>0</tilt>
						<range>1000</range>
					</LookAt>

					<Point>
						<coordinates>145.0359796148112,-37.9251590130442</coordinates>
					</Point>
				</Placemark>
				<Placemark>
					<name>Moorabbin</name>
					<LookAt>
						<longitude>145.037443636277</longitude>
						<latitude>-37.93444389831649</latitude>
						<altitude>0</altitude>
						<heading>0</heading>
						<tilt>0</tilt>
						<range>1000</range>
					</LookAt>

					<Point>
						<coordinates>145.037443636277,-37.9344438983165</coordinates>
					</Point>
				</Placemark>
				<Placemark>
					<name>Highett</name>
					<LookAt>
						<longitude>145.041960417405</longitude>
						<latitude>-37.94819994957486</latitude>
						<altitude>0</altitude>
						<heading>0</heading>
						<tilt>0</tilt>
						<range>1000</range>
					</LookAt>

					<Point>
						<coordinates>145.041960417405,-37.94819994957486</coordinates>
					</Point>
				</Placemark>
				<Placemark>
					<name>Cheltenham</name>
					<LookAt>
						<longitude>145.0551870163506</longitude>
						<latitude>-37.96711416307233</latitude>
						<altitude>0</altitude>
						<heading>0</heading>
						<tilt>0</tilt>
						<range>1000</range>
					</LookAt>

					<Point>
						<coordinates>145.0551870163506,-37.96711416307233</coordinates>
					</Point>
				</Placemark>
				<Placemark>
					<name>Mentone</name>
					<LookAt>
						<longitude>145.0656503285992</longitude>
						<latitude>-37.98212843838904</latitude>
						<altitude>0</altitude>
						<heading>0</heading>
						<tilt>0</tilt>
						<range>1000</range>
					</LookAt>

					<Point>
						<coordinates>145.0656503285992,-37.98212843838904</coordinates>
					</Point>
				</Placemark>
				<Placemark>
					<name>Parkdale</name>
					<LookAt>
						<longitude>145.0766077889132</longitude>
						<latitude>-37.99333873330092</latitude>
						<altitude>0</altitude>
						<heading>0</heading>
						<tilt>0</tilt>
						<range>1000</range>
					</LookAt>

					<Point>
						<coordinates>145.0766077889132,-37.99333873330092</coordinates>
					</Point>
				</Placemark>
				<Placemark>
					<name>Mordialloc</name>
					<LookAt>
						<longitude>145.0880324510513</longitude>
						<latitude>-38.00652090527</latitude>
						<altitude>0</altitude>
						<heading>0</heading>
						<tilt>0</tilt>
						<range>1000</range>
					</LookAt>

					<Point>
						<coordinates>145.0880324510513,-38.00652090527</coordinates>
					</Point>
				</Placemark>
				<Placemark>
					<name>Aspendale</name>
					<LookAt>
						<longitude>145.1025389725726</longitude>
						<latitude>-38.02742372524499</latitude>
						<altitude>0</altitude>
						<heading>0</heading>
						<tilt>0</tilt>
						<range>1000</range>
					</LookAt>

					<Point>
						<coordinates>145.1025389725726,-38.02742372524499</coordinates>
					</Point>
				</Placemark>
				<Placemark>
					<name>Edithvale</name>
					<LookAt>
						<longitude>145.1088995504502</longitude>
						<latitude>-38.03816595906265</latitude>
						<altitude>0</altitude>
						<heading>0</heading>
						<tilt>0</tilt>
						<range>1000</range>
					</LookAt>

					<Point>
						<coordinates>145.1088995504502,-38.03816595906266</coordinates>
					</Point>
				</Placemark>
				<Placemark>
					<name>Chelsea</name>
					<LookAt>
						<longitude>145.1163658344584</longitude>
						<latitude>-38.05176272002679</latitude>
						<altitude>0</altitude>
						<heading>0</heading>
						<tilt>0</tilt>
						<range>1000</range>
					</LookAt>

					<Point>
						<coordinates>145.1163658344584,-38.05176272002679</coordinates>
					</Point>
				</Placemark>
				<Placemark>
					<name>Bonbeach</name>
					<LookAt>
						<longitude>145.1202490849214</longitude>
						<latitude>-38.0632218908238</latitude>
						<altitude>0</altitude>
						<heading>0</heading>
						<tilt>0</tilt>
						<range>1000</range>
					</LookAt>

					<Point>
						<coordinates>145.1202490849214,-38.0632218908238</coordinates>
					</Point>
				</Placemark>
				<Placemark>
					<name>Carrum</name>
					<LookAt>
						<longitude>145.1231453895298</longitude>
						<latitude>-38.07614253783835</latitude>
						<altitude>0</altitude>
						<heading>0</heading>
						<tilt>0</tilt>
						<range>1000</range>
					</LookAt>

					<Point>
						<coordinates>145.1231453895298,-38.07614253783835</coordinates>
					</Point>
				</Placemark>
				<Placemark>
					<name>Seaford</name>
					<LookAt>
						<longitude>145.1287355812474</longitude>
						<latitude>-38.1056016941519</latitude>
						<altitude>0</altitude>
						<heading>0</heading>
						<tilt>0</tilt>
						<range>1000</range>
					</LookAt>

					<Point>
						<coordinates>145.1287355812474,-38.1056016941519</coordinates>
					</Point>
				</Placemark>
				<Placemark>
					<name>Kananook</name>
					<LookAt>
						<longitude>145.135957495423</longitude>
						<latitude>-38.12184275078045</latitude>
						<altitude>0</altitude>
						<heading>0</heading>
						<tilt>0</tilt>
						<range>1000</range>
					</LookAt>

					<Point>
						<coordinates>145.135957495423,-38.12184275078045</coordinates>
					</Point>
				</Placemark>
				<Placemark>
					<name>Frankston</name>
					<LookAt>
						<longitude>145.1268369710746</longitude>
						<latitude>-38.14255633174973</latitude>
						<altitude>0</altitude>
						<heading>0</heading>
						<tilt>0</tilt>
						<range>1000</range>
					</LookAt>

					<Point>
						<coordinates>145.1268369710746,-38.14255633174973</coordinates>
					</Point>
				</Placemark>
				
			</Folder>
			<Folder>
				<name>Frankston to Stony Point</name>
				<Placemark>
					<name>Leawarra</name>
					<LookAt>
						<longitude>145.1405329273666</longitude>
						<latitude>-38.15188719771235</latitude>
						<altitude>0</altitude>
						<heading>0</heading>
						<tilt>0</tilt>
						<range>1000</range>
					</LookAt>

					<Point>
						<coordinates>145.1405329273666,-38.15188719771235</coordinates>
					</Point>
				</Placemark>
				<Placemark>
					<name>Langwarrin</name>
					<LookAt>
						<longitude>145.1665836184417</longitude>
						<latitude>-38.17032302482649</latitude>
						<altitude>0</altitude>
						<heading>0</heading>
						<tilt>0</tilt>
						<range>1000</range>
					</LookAt>

					<Point>
						<coordinates>145.1665836184417,-38.17032302482649</coordinates>
					</Point>
				</Placemark>
				<Placemark>
					<name>Baxter</name>
					<LookAt>
						<longitude>145.1609726708888</longitude>
						<latitude>-38.1940391777557</latitude>
						<altitude>0</altitude>
						<heading>0</heading>
						<tilt>0</tilt>
						<range>1000</range>
					</LookAt>

					<Point>
						<coordinates>145.1609726708888,-38.1940391777557</coordinates>
					</Point>
				</Placemark>
				<Placemark>
					<name>Somerville</name>
					<LookAt>
						<longitude>145.1767853583674</longitude>
						<latitude>-38.22555306103282</latitude>
						<altitude>0</altitude>
						<heading>0</heading>
						<tilt>0</tilt>
						<range>1000</range>
					</LookAt>

					<Point>
						<coordinates>145.1767853583674,-38.22555306103282</coordinates>
					</Point>
				</Placemark>
				<Placemark>
					<name>Tyabb</name>
					<LookAt>
						<longitude>145.1863234752831</longitude>
						<latitude>-38.2594995134257</latitude>
						<altitude>0</altitude>
						<heading>0</heading>
						<tilt>0</tilt>
						<range>1000</range>
					</LookAt>

					<Point>
						<coordinates>145.1863234752831,-38.25949951342571</coordinates>
					</Point>
				</Placemark>
				<Placemark>
					<name>Hastings</name>
					<LookAt>
						<longitude>145.1861202703359</longitude>
						<latitude>-38.30441728225384</latitude>
						<altitude>0</altitude>
						<heading>0</heading>
						<tilt>0</tilt>
						<range>1000</range>
					</LookAt>

					<Point>
						<coordinates>145.1861202703359,-38.30441728225384</coordinates>
					</Point>
				</Placemark>
				<Placemark>
					<name>Bittern</name>
					<LookAt>
						<longitude>145.1786965118116</longitude>
						<latitude>-38.33724792447294</latitude>
						<altitude>0</altitude>
						<heading>0</heading>
						<tilt>0</tilt>
						<range>1000</range>
					</LookAt>

					<Point>
						<coordinates>145.1786965118116,-38.33724792447294</coordinates>
					</Point>
				</Placemark>
				<Placemark>
					<name>Morradoo</name>
					<LookAt>
						<longitude>145.1897986451421</longitude>
						<latitude>-38.35438049937432</latitude>
						<altitude>0</altitude>
						<heading>0</heading>
						<tilt>0</tilt>
						<range>1000</range>
					</LookAt>

					<Point>
						<coordinates>145.1897986451421,-38.35438049937432</coordinates>
					</Point>
				</Placemark>
				<Placemark>
					<name>Crib Point</name>
					<LookAt>
						<longitude>145.2044733603158</longitude>
						<latitude>-38.36648711811329</latitude>
						<altitude>0</altitude>
						<heading>0</heading>
						<tilt>0</tilt>
						<range>1000</range>
					</LookAt>

					<Point>
						<coordinates>145.2044733603158,-38.36648711811329</coordinates>
					</Point>
				</Placemark>
				<Placemark>
					<name>Stony Point</name>
					<LookAt>
						<longitude>145.2212477908342</longitude>
						<latitude>-38.37420089613937</latitude>
						<altitude>0</altitude>
						<heading>0</heading>
						<tilt>0</tilt>
						<range>1000</range>
					</LookAt>

					<Point>
						<coordinates>145.2212477908342,-38.37420089613937</coordinates>
					</Point>
				</Placemark>
				
			</Folder>
			<Folder>
				<name>South Yarra to Sandringham</name>
				<Placemark>
					<name>Prahran</name>
					<LookAt>
						<longitude>144.9899347774602</longitude>
						<latitude>-37.84992946211244</latitude>
						<altitude>0</altitude>
						<heading>0</heading>
						<tilt>0</tilt>
						<range>1000</range>
					</LookAt>

					<Point>
						<coordinates>144.9899347774602,-37.84992946211244</coordinates>
					</Point>
				</Placemark>
				<Placemark>
					<name>Windsor</name>
					<LookAt>
						<longitude>144.9917090528053</longitude>
						<latitude>-37.85569159525242</latitude>
						<altitude>0</altitude>
						<heading>0</heading>
						<tilt>0</tilt>
						<range>1000</range>
					</LookAt>

					<Point>
						<coordinates>144.9917090528053,-37.85569159525242</coordinates>
					</Point>
				</Placemark>
				<Placemark>
					<name>Balaclava</name>
					<LookAt>
						<longitude>144.9936534742359</longitude>
						<latitude>-37.86947777227983</latitude>
						<altitude>0</altitude>
						<heading>0</heading>
						<tilt>0</tilt>
						<range>1000</range>
					</LookAt>

					<Point>
						<coordinates>144.9936534742359,-37.86947777227983</coordinates>
					</Point>
				</Placemark>
				<Placemark>
					<name>Ripponlea</name>
					<LookAt>
						<longitude>144.9952382357836</longitude>
						<latitude>-37.87550964630731</latitude>
						<altitude>0</altitude>
						<heading>0</heading>
						<tilt>0</tilt>
						<range>1000</range>
					</LookAt>

					<Point>
						<coordinates>144.9952382357836,-37.87550964630731</coordinates>
					</Point>
				</Placemark>
				<Placemark>
					<name>Elsternwick</name>
					<LookAt>
						<longitude>145.0012868965175</longitude>
						<latitude>-37.8851487182305</latitude>
						<altitude>0</altitude>
						<heading>0</heading>
						<tilt>0</tilt>
						<range>1000</range>
					</LookAt>

					<Point>
						<coordinates>145.0012868965175,-37.8851487182305</coordinates>
					</Point>
				</Placemark>
				<Placemark>
					<name>Gardenvale</name>
					<LookAt>
						<longitude>145.0043851442427</longitude>
						<latitude>-37.8966886432514</latitude>
						<altitude>0</altitude>
						<heading>0</heading>
						<tilt>0</tilt>
						<range>1000</range>
					</LookAt>

					<Point>
						<coordinates>145.0043851442427,-37.8966886432514</coordinates>
					</Point>
				</Placemark>
				<Placemark>
					<name>North Brighton</name>
					<LookAt>
						<longitude>145.0027925962373</longitude>
						<latitude>-37.90470448308012</latitude>
						<altitude>0</altitude>
						<heading>0</heading>
						<tilt>0</tilt>
						<range>1000</range>
					</LookAt>

					<Point>
						<coordinates>145.0027925962373,-37.90470448308012</coordinates>
					</Point>
				</Placemark>
				<Placemark>
					<name>Middle Brighton</name>
					<LookAt>
						<longitude>144.9971611838868</longitude>
						<latitude>-37.91502456435007</latitude>
						<altitude>0</altitude>
						<heading>0</heading>
						<tilt>0</tilt>
						<range>1000</range>
					</LookAt>

					<Point>
						<coordinates>144.9971611838868,-37.91502456435007</coordinates>
					</Point>
				</Placemark>
				<Placemark>
					<name>Brighton Beach</name>
					<LookAt>
						<longitude>144.9893264653923</longitude>
						<latitude>-37.92666060471713</latitude>
						<altitude>0</altitude>
						<heading>0</heading>
						<tilt>0</tilt>
						<range>1000</range>
					</LookAt>

					<Point>
						<coordinates>144.9893264653923,-37.92666060471713</coordinates>
					</Point>
				</Placemark>
				<Placemark>
					<name>Hampton</name>
					<LookAt>
						<longitude>145.0020268244094</longitude>
						<latitude>-37.93825560684365</latitude>
						<altitude>0</altitude>
						<heading>0</heading>
						<tilt>0</tilt>
						<range>1000</range>
					</LookAt>

					<Point>
						<coordinates>145.0020268244094,-37.93825560684365</coordinates>
					</Point>
				</Placemark>
				<Placemark>
					<name>Sandringham</name>
					<LookAt>
						<longitude>145.0048378505939</longitude>
						<latitude>-37.95043302604907</latitude>
						<altitude>0</altitude>
						<heading>0</heading>
						<tilt>0</tilt>
						<range>1000</range>
					</LookAt>

					<Point>
						<coordinates>145.0048378505939,-37.95043302604907</coordinates>
					</Point>
				</Placemark>
				
			</Folder>
			<Folder>
				<name>Dandenong to Pakenham</name>
				<Placemark>
					<name>Hallam</name>
					<LookAt>
						<longitude>145.2696520939572</longitude>
						<latitude>-38.01783260086336</latitude>
						<altitude>0</altitude>
						<heading>0</heading>
						<tilt>0</tilt>
						<range>1000</range>
					</LookAt>

					<Point>
						<coordinates>145.2696520939572,-38.01783260086336</coordinates>
					</Point>
				</Placemark>
				<Placemark>
					<name>Narre Warren</name>
					<LookAt>
						<longitude>145.3026078005469</longitude>
						<latitude>-38.02697385806619</latitude>
						<altitude>0</altitude>
						<heading>0</heading>
						<tilt>0</tilt>
						<range>1000</range>
					</LookAt>

					<Point>
						<coordinates>145.3026078005469,-38.02697385806619</coordinates>
					</Point>
				</Placemark>
				<Placemark>
					<name>Berwick</name>
					<LookAt>
						<longitude>145.3450665666376</longitude>
						<latitude>-38.03950157812953</latitude>
						<altitude>0</altitude>
						<heading>0</heading>
						<tilt>0</tilt>
						<range>1000</range>
					</LookAt>

					<Point>
						<coordinates>145.3450665666376,-38.03950157812953</coordinates>
					</Point>
				</Placemark>
				<Placemark>
					<name>Beaconsfield</name>
					<LookAt>
						<longitude>145.3665340906897</longitude>
						<latitude>-38.05097323922935</latitude>
						<altitude>0</altitude>
						<heading>0</heading>
						<tilt>0</tilt>
						<range>1000</range>
					</LookAt>

					<Point>
						<coordinates>145.3665340906897,-38.05097323922935</coordinates>
					</Point>
				</Placemark>
				<Placemark>
					<name>Officer</name>
					<LookAt>
						<longitude>145.4117604457653</longitude>
						<latitude>-38.06617103426135</latitude>
						<altitude>0</altitude>
						<heading>0</heading>
						<tilt>0</tilt>
						<range>1000</range>
					</LookAt>

					<Point>
						<coordinates>145.4117604457653,-38.06617103426135</coordinates>
					</Point>
				</Placemark>
				<Placemark>
					<name>Pakenham</name>
					<LookAt>
						<longitude>145.4864513236875</longitude>
						<latitude>-38.08033419991592</latitude>
						<altitude>0</altitude>
						<heading>0</heading>
						<tilt>0</tilt>
						<range>1000</range>
					</LookAt>

					<Point>
						<coordinates>145.4864513236875,-38.08033419991592</coordinates>
					</Point>
				</Placemark>
				
			</Folder>
		</Folder>
	</Document>
</kml>
